Zip,City,State,Latitude,Longitude
71937,Cove,AR,34.3985,-94.3940
72044,Edgemont,AR,35.6244,-92.1606
56171,Sherburn,MN,43.6608,-94.7436
49430,Lamont,MI,43.0103,-85.8975
52585,Richland,IA,41.1941,-91.9803
47520,Cannelton,IN,37.9343,-86.6782
49464,Zeeland,MI,42.8293,-85.9962
49919,Covington,MI,46.5598,-88.5220
52401,Cedar Rapids,IA,41.9755,-91.6591
35979,Higdon,AL,34.8312,-85.6156
36350,Midland City,AL,31.3191,-85.4872
38401,Columbia,TN,35.6198,-87.0357
41065,Muses Mills,KY,38.3481,-83.7186
55302,Annandale,MN,45.2466,-94.1169
29607,Greenville,SC,34.8256,-82.3410
31150,Atlanta,GA,33.8444,-84.4741
31646,Saint George,GA,30.5189,-82.0806
31826,Shiloh,GA,32.8035,-84.6938
17932,Frackville,PA,40.6491,-76.5033
18947,Pipersville,PA,40.4264,-75.1184
20227,Washington,DC,38.8933,-77.0146
14043,Depew,NY,42.9050,-78.7006
15278,Pittsburgh,PA,40.4344,-80.0248
15482,Star Junction,PA,40.0628,-79.7634
33446,Delray Beach,FL,26.4525,-80.1651
27915,Avon,NC,35.3543,-75.5042
23328,Chesapeake,VA,36.7085,-76.2785
24062,Blacksburg,VA,37.1742,-80.3957
26253,Beverly,WV,38.8272,-79.8906
2472,Watertown,MA,42.3713,-71.1820
7309,Jersey City,NJ,40.7328,-74.0755
623,Cabo Rojo,PR,18.0864,-67.1522
52163,Protivin,IA,43.2166,-92.0922
52216,Clarence,IA,41.8882,-91.0457
53031,Hingham,WI,43.6394,-87.9157
60651,Chicago,IL,41.9015,-87.7406
62090,Venice,IL,38.6707,-90.1705
62420,Casey,IL,39.2994,-87.9986
64503,Saint Joseph,MO,39.7418,-94.8324
65325,Cole Camp,MO,38.4510,-93.1916
65638,Drury,MO,36.8519,-92.3308
74801,Shawnee,OK,35.3273,-96.9354
75475,Randolph,TX,33.4853,-96.2553
75757,Bullard,TX,32.1368,-95.3671
63179,Saint Louis,MO,38.6531,-90.2435
63436,Center,MO,39.5017,-91.5367
57440,Frankfort,SD,44.8571,-98.2719
72112,Newport,AR,35.5861,-91.2470
72714,Bella Vista,AR,36.4580,-94.2355
99671,Stebbins,AK,63.5119,-162.2746
97304,Salem,OR,44.9702,-123.0803
97414,Broadbent,OR,42.9780,-124.1716
81148,Romeo,CO,37.1716,-105.9865
81423,Norwood,CO,38.0822,-108.2586
81505,Grand Junction,CO,39.1125,-108.6051
81624,Collbran,CO,39.2202,-107.9341
82718,Gillette,WY,43.9400,-105.5245
89317,Lund,NV,38.8354,-115.0263
92232,Calexico,CA,33.0262,-115.2846
93227,Goshen,CA,36.3572,-119.4254
93234,Huron,CA,36.2098,-120.0847
93529,June Lake,CA,37.7652,-119.0777
93761,Fresno,CA,36.7464,-119.6397
94931,Cotati,CA,38.3286,-122.7104
95322,Gustine,CA,37.1875,-121.0323
30334,Atlanta,GA,33.7027,-84.4391
36879,Waverly,AL,32.7335,-85.5532
38017,Collierville,TN,35.0572,-89.6742
43984,New Rumley,OH,40.2965,-81.1025
46787,South Whitley,IN,41.0802,-85.6280
31606,Valdosta,GA,30.8024,-83.1962
55992,Zumbrota,MN,44.2972,-92.6831
13827,Owego,NY,42.1203,-76.2587
14739,Friendship,NY,42.1924,-78.1431
15227,Pittsburgh,PA,40.3779,-79.9752
16877,Warriors Mark,PA,40.7218,-78.0856
31732,Cedar Springs,GA,31.1698,-85.0557
32621,Bronson,FL,29.4471,-82.6045
21634,Fishing Creek,MD,38.2884,-76.2015
24008,Roanoke,VA,37.2742,-79.9579
25645,Stirrat,WV,37.8332,-81.9024
34447,Homosassa Springs,FL,28.8049,-82.5743
35004,Moody,AL,33.6064,-86.5025
27834,Greenville,NC,35.6267,-77.3790
28373,Pinebluff,NC,35.1001,-79.4798
11703,North Babylon,NY,40.7334,-73.3226
2909,Providence,RI,41.8191,-71.4478
4617,Brooksville,ME,44.3636,-68.7440
7961,Morristown,NJ,40.7798,-74.4428
767,Yabucoa,PR,18.0728,-65.8970
803,St Thomas,VI,18.3223,-64.9637
43681,Toledo,OH,41.6868,-83.4394
36744,Greensboro,AL,32.7035,-87.6018
37616,Afton,TN,36.2189,-82.7470
38602,Arkabutla,MS,34.6863,-90.1068
50519,Bode,IA,42.8847,-94.2764
40081,Crestwood,KY,38.3386,-85.4925
30444,East Point,GA,33.6961,-84.4503
90038,Los Angeles,CA,34.0895,-118.3285
90063,Los Angeles,CA,34.0452,-118.1865
92709,Irvine,CA,33.6403,-117.7694
93492,Morro Bay,CA,35.3729,-120.8594
94175,San Francisco,CA,37.7848,-122.7278
84530,La Sal,UT,38.2369,-109.1545
95592,Vallejo,CA,38.0987,-122.2713
38138,Germantown,TN,35.0889,-89.8068
40298,Louisville,KY,38.1890,-85.6768
56517,Beltrami,MN,47.5517,-96.5349
57841,Carlisle,SD,45.6324,-98.7042
58323,Calvin,ND,48.8496,-98.9053
58533,Elgin,ND,46.4082,-101.8285
58771,Plaza,ND,48.0740,-101.9763
58793,Westhope,ND,48.8718,-101.0494
53171,Somers,WI,42.6423,-87.9032
53189,Waukesha,WI,42.9674,-88.2640
56091,Waldorf,MN,43.9304,-93.6949
43733,Derwent,OH,39.9236,-81.5430
47613,Elberfeld,IN,38.1706,-87.4289
51049,Quimby,IA,42.6268,-95.6144
51651,Shambaugh,IA,40.6575,-95.0250
53014,Chilton,WI,44.0332,-88.1763
43334,Marengo,OH,40.3996,-82.8078
62206,East Saint Louis,IL,38.5645,-90.1628
64155,Kansas City,MO,39.2768,-94.5734
48215,Detroit,MI,42.3783,-82.9524
30531,Cornelia,GA,34.5142,-83.5412
20521,Washington,DC,38.8933,-77.0146
20557,Washington,DC,38.8874,-77.0047
23176,Wake,VA,37.5718,-76.4163
16830,Clearfield,PA,41.0262,-78.4384
16876,Wallaceton,PA,40.9601,-78.2889
11707,West Babylon,NY,40.9223,-72.6371
12442,Hunter,NY,42.2221,-74.2342
13334,Eaton,NY,42.8392,-75.6548
13626,Copenhagen,NY,43.8590,-75.7294
24620,Hurley,VA,37.4099,-82.0232
25521,Griffithsville,WV,38.2380,-81.9899
34489,Silver Springs,FL,29.2152,-82.0972
17866,Coal Township,PA,40.7913,-76.5639
17882,Troxelville,PA,40.8016,-77.2054
18466,Tobyhanna,PA,41.1901,-75.3678
19173,Philadelphia,PA,40.0018,-75.1179
28039,East Spencer,NC,35.6779,-80.4459
28206,Charlotte,NC,35.2483,-80.8275
28282,Charlotte,NC,35.2242,-80.8447
96778,Pahoa,HI,19.4946,-154.9266
97298,Portland,OR,45.5486,-123.1147
97538,Selma,OR,42.2597,-123.5478
98520,Aberdeen,WA,46.9730,-123.8192
98579,Rochester,WA,46.8144,-123.0865
93701,Fresno,CA,36.7494,-119.7887
94295,Sacramento,CA,38.3774,-121.4444
16601,Altoona,PA,40.5263,-78.4008
17301,Abbottstown,PA,39.8915,-76.9836
19420,Arcola,PA,40.1529,-75.4567
32503,Pensacola,FL,30.4480,-87.2073
36268,Munford,AL,33.5118,-85.9476
24292,Whitetop,VA,36.5957,-81.5915
26267,Ellamore,WV,38.9126,-80.0791
27341,Seagrove,NC,35.5333,-79.7102
8887,Three Bridges,NJ,40.5254,-74.7963
71284,Tallulah,LA,32.3416,-91.2165
71423,Dry Prong,LA,31.5631,-92.5495
71443,Kurthwood,LA,31.1019,-93.3612
48226,Detroit,MI,42.3318,-83.0489
48503,Flint,MI,43.0112,-83.6929
49756,Lewiston,MI,44.8399,-84.3079
50675,Traer,IA,42.1936,-92.4828
78650,McDade,TX,30.2839,-97.2356
80402,Golden,CO,39.5220,-105.2239
83121,Frontier,WY,41.8144,-110.5374
92693,San Juan Capistrano,CA,33.5553,-117.5640
93140,Santa Barbara,CA,34.2628,-119.8486
93255,Onyx,CA,35.6668,-118.0170
75010,Carrollton,TX,33.0306,-96.8933
76054,Hurst,TX,32.8584,-97.1768
68743,Jackson,NE,42.4602,-96.6067
85268,Fountain Hills,AZ,33.6048,-111.7285
45841,Jenera,OH,40.8812,-83.7320
65047,Kaiser,MO,38.1401,-92.5833
67102,Maple City,KS,37.0435,-96.7592
67954,Rolla,KS,37.1634,-101.6191
68792,Wynot,NE,42.7495,-97.1437
75961,Nacogdoches,TX,31.6260,-94.6034
76452,Energy,TX,31.7584,-98.4061
76855,Lowake,TX,31.3336,-99.8584
80235,Denver,CO,39.6483,-105.0843
80620,Evans,CO,40.3780,-104.7036
81001,Pueblo,CO,38.2829,-104.5703
83401,Idaho Falls,ID,43.5289,-111.9814
85292,Winkelman,AZ,32.9458,-110.7220
57481,Westport,SD,45.6634,-98.6227
58723,Butte,ND,47.7852,-100.6926
78349,Concepcion,TX,27.3162,-98.2980
79381,Wilson,TX,33.3278,-101.7691
63626,Blackwell,MO,38.0536,-90.6423
23290,Richmond,VA,37.5242,-77.4932
23486,Willis Wharf,VA,37.5189,-75.8105
24069,Cascade,VA,36.5865,-79.6419
15773,Saint Benedict,PA,40.6284,-78.7334
16665,Newry,PA,40.3932,-78.4351
16927,Harrison Valley,PA,41.9581,-77.6719
30746,Sugar Valley,GA,34.5748,-85.0248
32830,Orlando,FL,28.3855,-81.5059
33756,Clearwater,FL,27.9446,-82.7870
20868,Spencerville,MD,39.1270,-76.9637
21849,Parsonsburg,MD,38.3631,-75.4557
22218,Arlington,VA,38.8808,-77.1130
17570,Rheems,PA,40.1295,-76.5699
17942,Landingville,PA,40.7226,-76.2296
18456,Prompton,PA,41.6062,-75.3397
18834,New Milford,PA,41.8531,-75.7208
18921,Ferndale,PA,40.3286,-75.1028
19134,Philadelphia,PA,39.9917,-75.1112
29164,Wagener,SC,33.6591,-81.4085
54020,Osceola,WI,45.2997,-92.6422
55125,Saint Paul,MN,44.9220,-92.9423
56039,Granada,MN,43.6805,-94.3377
39072,Pocahontas,MS,32.3113,-90.3972
39154,Raymond,MS,32.2306,-90.4571
8817,Edison,NJ,40.5161,-74.3975
10965,Pearl River,NY,41.0633,-74.0173
12151,Round Lake,NY,42.9323,-73.7936
12195,West Lebanon,NY,42.4794,-73.4748
18216,Beaver Meadows,PA,40.9312,-75.9149
2169,Quincy,MA,42.2507,-70.9959
2375,South Easton,MA,42.0297,-71.1019
2639,Dennis Port,MA,41.6611,-70.1335
77590,Texas City,TX,29.3953,-94.9176
78013,Comfort,TX,29.9725,-98.9108
68832,Doniphan,NE,40.7636,-98.3879
42046,Hamlin,KY,36.6033,-88.0923
43652,Toledo,OH,41.6868,-83.4394
62611,Arenzville,IL,39.8833,-90.3933
70005,Metairie,LA,29.9995,-90.1340
71048,Lisbon,LA,32.8301,-92.8557
26865,Yellow Spring,WV,39.1999,-78.4966
28007,Ansonville,NC,35.1047,-80.1097
54964,Pickett,WI,43.9231,-88.7265
56011,Belle Plaine,MN,44.6161,-93.7691
19318,Chatham,PA,39.8524,-75.8118
21241,Baltimore,MD,39.2847,-76.6205
50167,Minburn,IA,41.7507,-94.0466
80202,Denver,CO,39.7516,-104.9970
84305,Clarkston,UT,41.9386,-112.0433
85382,Peoria,AZ,33.6899,-112.2484
93465,Templeton,CA,35.5446,-120.7243
94160,San Francisco,CA,37.7848,-122.7278
94164,San Francisco,CA,37.7848,-122.7278
95383,Twain Harte,CA,38.0559,-120.2300
95665,Pine Grove,CA,38.4010,-120.6495
79917,El Paso,TX,31.6948,-106.3000
90301,Inglewood,CA,33.9559,-118.3587
60974,Woodland,IL,40.7103,-87.7314
62001,Alhambra,IL,38.8844,-89.7489
92543,Hemet,CA,33.7354,-116.9740
92837,Fullerton,CA,33.6403,-117.7694
14617,Rochester,NY,43.2232,-77.5972
15238,Pittsburgh,PA,40.5187,-79.8674
21767,Maugansville,MD,39.6979,-77.7451
2886,Warwick,RI,41.7055,-71.4512
3648,Enfield,NH,43.6303,-72.1354
4981,Stockton Springs,ME,44.4991,-68.8567
5061,Randolph Center,VT,43.9284,-72.5731
5648,Calais,VT,44.3757,-72.4951
19488,Norristown,PA,39.9832,-75.7481
19524,Robeson,PA,40.2487,-75.8587
982,Carolina,PR,18.4093,-65.9931
37407,Chattanooga,TN,35.0008,-85.2867
38704,Greenville,MS,33.2534,-90.9185
38912,Avalon,MS,33.6550,-90.0540
30415,Brooklet,GA,32.3456,-81.6234
31525,Brunswick,GA,31.2610,-81.4983
32798,Zellwood,FL,28.7169,-81.5754
43719,Bethesda,OH,40.0094,-81.0763
43748,Junction City,OH,39.7109,-82.3023
47649,Francisco,IN,38.3433,-87.4428
35576,Millport,AL,33.5811,-88.1084
36535,Foley,AL,30.3969,-87.6962
37367,Pikeville,TN,35.6351,-85.1716
27107,Winston Salem,NC,36.0462,-80.1900
24324,Draper,VA,36.9730,-80.7931
41132,Denton,KY,38.2512,-82.8350
43506,Bryan,OH,41.4716,-84.5546
28584,Swansboro,NC,34.6977,-77.1061
29325,Clinton,SC,34.4701,-81.8676
95965,Oroville,CA,39.5586,-121.5892
97844,Irrigon,OR,45.8865,-119.5174
83429,Island Park,ID,44.4907,-111.3663
78148,Universal City,TX,29.5502,-98.2994
78588,San Isidro,TX,26.7202,-98.4685
65777,Moody,MO,36.5243,-91.9886
67050,Garden Plain,KS,37.6637,-97.6854
67645,Lenora,KS,39.6097,-99.9190
56522,Campbell,MN,46.1302,-96.4002
58405,Jamestown,ND,46.9133,-98.6996
60025,Glenview,IL,42.0767,-87.8192
50278,Zearing,IA,42.1589,-93.2967
50569,Otho,IA,42.4179,-94.1494
52156,Luana,IA,43.0519,-91.4584
51530,Earling,IA,41.7736,-95.4276
51656,Yorktown,IA,40.7374,-95.1562
53009,Byron,WI,43.7698,-88.4944
55381,Silver Lake,MN,44.9050,-94.1880
30263,Newnan,GA,33.3878,-84.8254
30384,Atlanta,GA,33.8444,-84.4741
30728,La Fayette,GA,34.6962,-85.2582
31714,Ashburn,GA,31.7097,-83.6652
33315,Fort Lauderdale,FL,26.0944,-80.1542
33994,Fort Myers,FL,26.5529,-81.9486
34209,Bradenton,FL,27.4889,-82.6274
47261,Millhousen,IN,39.2920,-85.4918
37050,Cumberland City,TN,36.3736,-87.6316
15665,Manor,PA,40.3333,-79.6665
17265,Upperstrasburg,PA,40.0360,-77.7911
17585,Witmer,PA,40.0484,-76.2114
19511,Bowers,PA,40.4877,-75.7393
8406,Ventnor City,NJ,39.3423,-74.4819
29520,Cheraw,SC,34.6886,-79.9232
29615,Greenville,SC,34.8668,-82.3174
11716,Bohemia,NY,40.7700,-73.1138
12719,Barryville,NY,41.4803,-74.9269
23435,Suffolk,VA,36.8488,-76.4652
24550,Evington,VA,37.2379,-79.2827
25918,Shady Spring,WV,37.7125,-81.0056
27028,Mocksville,NC,35.9205,-80.5714
27049,Toast,NC,36.5513,-80.6558
95655,Mather,CA,38.5581,-121.2874
91189,Pasadena,CA,33.7866,-118.2987
93099,Simi Valley,CA,34.0324,-119.1343
98604,Battle Ground,WA,45.7913,-122.5179
87413,Bloomfield,NM,36.5794,-107.8791
2382,Whitman,MA,42.0824,-70.9373
2719,Fairhaven,MA,41.6342,-70.8814
62676,Hillyard,IL,39.1282,-89.9232
79370,Spur,TX,33.4788,-100.8967
71226,Chatham,LA,32.2778,-92.4528
72542,Hardy,AR,36.3036,-91.4857
72686,Witts Springs,AR,35.7472,-92.9099
72927,Booneville,AR,35.1060,-93.9753
83355,Wendell,ID,42.7608,-114.7103
83641,Melba,ID,43.3704,-116.5756
84307,Corinne,UT,41.5357,-112.3037
60139,Glendale Heights,IL,41.9202,-88.0789
60438,Lansing,IL,41.5657,-87.5482
68636,Elgin,NE,42.0092,-98.1331
66532,Robinson,KS,39.8202,-95.3678
55723,Cook,MN,47.8550,-92.7708
39478,Sandy Hook,MS,31.0542,-89.8555
49041,Comstock,MI,42.2454,-85.5299
61107,Rockford,IL,42.2800,-89.0335
58072,Valley City,ND,46.9343,-98.0237
59333,Hathaway,MT,46.2719,-106.2137
35283,Birmingham,AL,33.5446,-86.9292
42163,Rocky Hill,KY,37.0943,-86.1432
49157,Richland,MI,44.2155,-85.2981
43735,East Fultonham,OH,39.8515,-82.1217
44403,Brookfield,OH,41.2400,-80.5835
50581,Rolfe,IA,42.8421,-94.5311
33850,Lake Alfred,FL,28.0925,-81.7276
35259,Birmingham,AL,33.5446,-86.9292
35593,Vina,AL,34.3693,-88.0675
40118,Fairdale,KY,38.1061,-85.7536
40371,Salt Lick,KY,38.0879,-83.6115
13479,Washington Mills,NY,43.0538,-75.2716
15564,Wellersburg,PA,39.7299,-78.8441
15944,New Florence,PA,40.3712,-79.0772
17052,Mapleton Depot,PA,40.3381,-77.9779
30747,Summerville,GA,34.4898,-85.3293
31754,Georgetown,GA,31.8605,-85.0753
32746,Lake Mary,FL,28.7581,-81.3399
33801,Lakeland,FL,28.0412,-81.9239
23178,Ware Neck,VA,37.4003,-76.4609
10072,New York,NY,40.7808,-73.9772
10166,New York,NY,40.7546,-73.9762
10998,Westtown,NY,41.3340,-74.5459
21623,Church Hill,MD,39.1232,-75.9671
29336,Fairforest,SC,34.8882,-81.9690
29348,Gramling,SC,34.8882,-81.9690
11560,Locust Valley,NY,40.8820,-73.5942
18355,Scotrun,PA,41.0748,-75.3626
36538,Frankville,AL,31.6461,-88.1419
37322,Decatur,TN,35.5037,-84.8074
43081,Westerville,OH,40.1095,-82.9161
27105,Winston Salem,NC,36.1479,-80.2342
44398,Akron,OH,41.1287,-81.5400
46731,Craigville,IN,40.7936,-85.0974
33659,Palm River-Clair Mel,FL,27.8944,-82.3389
2875,Shannock,RI,41.4476,-71.6388
4630,East Machias,ME,44.7540,-67.3786
6053,New Britain,CT,41.6869,-72.7908
714,Arroyo,PR,17.9873,-66.0555
2126,Mattapan,MA,42.2721,-71.0943
14150,Tonawanda,NY,43.0019,-78.8631
30339,Atlanta,GA,33.8751,-84.4662
32361,Wacissa,FL,30.3578,-83.9888
32634,Fairfield,FL,29.3509,-82.2765
33523,Dade City,FL,28.4330,-82.1974
33706,Saint Petersburg,FL,27.7415,-82.7518
24605,Bluefield,VA,37.2225,-81.3367
25444,Slanesville,WV,39.4128,-78.5259
26280,Mill Creek,WV,38.7361,-80.0000
18465,Thompson,PA,41.8393,-75.5084
12197,Worcester,NY,42.6103,-74.7240
13147,Scipio Center,NY,42.7747,-76.5705
28519,Bridgeton,NC,35.1207,-77.0197
26561,Big Run,WV,39.5755,-80.6667
82937,Lyman,WY,41.3998,-110.3662
64070,Lone Jack,MO,38.8955,-94.1532
64471,New Hampton,MO,40.2647,-94.1959
75075,Plano,TX,33.0247,-96.7404
68118,Omaha,NE,41.2632,-96.1711
79080,Skellytown,TX,35.6550,-101.2248
70059,Harvey,LA,29.6779,-90.0901
90845,Long Beach,CA,33.7866,-118.2987
92114,San Diego,CA,32.7070,-117.0542
98144,Seattle,WA,47.5858,-122.3008
98833,Mazama,WA,48.6348,-120.4768
95692,Wheatland,CA,39.0307,-121.4350
95826,Sacramento,CA,38.5501,-121.3749
93458,Santa Maria,CA,34.9563,-120.4524
61866,Rantoul,IL,40.3071,-88.1558
77046,Houston,TX,29.7332,-95.4313
77581,Pearland,TX,29.5622,-95.2698
67149,Viola,KS,37.5383,-97.6203
57231,De Smet,SD,44.3743,-97.5744
74061,Ramona,OK,36.5339,-95.9087
82412,Byron,WY,44.7945,-108.5342
75712,Tyler,TX,32.4112,-95.2899
75756,Brownsboro,TX,32.3060,-95.6051
85225,Chandler,AZ,33.3163,-111.8306
86508,Lupton,AZ,35.3253,-109.0785
87579,Vadito,NM,36.1605,-105.5605
93215,Delano,CA,35.7750,-119.2337
94973,Woodacre,CA,38.0076,-122.6391
98587,Taholah,WA,47.3225,-124.2581
98639,North Bonneville,WA,45.6500,-121.9717
4327,Richmond,ME,44.0916,-69.8041
4747,Island Falls,ME,46.0045,-68.2700
5452,Essex Junction,VT,44.5020,-73.0938
6410,Cheshire,CT,41.5070,-72.9049
2769,Rehoboth,MA,41.8351,-71.2612
54875,Springbrook,WI,45.9475,-91.6753
55018,Dennison,MN,44.4230,-93.0009
37421,Chattanooga,TN,35.0286,-85.1594
46904,Kokomo,IN,40.4696,-86.1189
5155,South Londonderry,VT,43.1585,-72.8450
6074,South Windsor,CT,41.8367,-72.5608
15242,Pittsburgh,PA,40.4344,-80.0248
17010,Campbelltown,PA,40.2801,-76.5806
23101,Macon,VA,37.5533,-77.8930
60697,Chicago,IL,41.8119,-87.6873
23297,Richmond,VA,37.3897,-77.5613
62464,Stoy,IL,38.9898,-87.8396
58370,Saint Michael,ND,47.9944,-98.8691
72536,Franklin,AR,36.1559,-91.7564
73644,Elk City,OK,35.4059,-99.4166
74330,Adair,OK,36.4343,-95.2551
30354,Atlanta,GA,33.6588,-84.3968
80454,Indian Hills,CO,39.6313,-105.2607
37774,Loudon,TN,35.7260,-84.3307
39731,Brooksville,MS,33.2305,-88.5797
72314,Birdeye,AR,35.3572,-90.6773
44022,Chagrin Falls,OH,41.4393,-81.3923
72774,West Fork,AR,35.8963,-94.1966
53803,Benton,WI,42.5638,-90.3678
54565,Upson,WI,46.3094,-90.4354
54757,New Auburn,WI,45.2356,-91.5213
54936,Fond Du Lac,WI,43.7406,-88.5230
55054,New Market,MN,44.5711,-93.3543
62248,Hecker,IL,38.2995,-89.9618
29260,Columbia,SC,34.0060,-80.9708
42104,Bowling Green,KY,36.9305,-86.4475
43115,Clarksburg,OH,39.5019,-83.1738
44333,Akron,OH,41.1447,-81.6195
34101,Naples,FL,25.8555,-81.3872
39067,Ethel,MS,33.1279,-89.4670
23025,Cardinal,VA,37.4222,-76.3730
23228,Richmond,VA,37.6217,-77.4890
23541,Norfolk,VA,36.9312,-76.2397
28386,Shannon,NC,34.8519,-79.1227
32971,Winter Beach,FL,27.7090,-80.5726
73834,Buffalo,OK,36.8511,-99.5897
75294,Dallas,TX,32.7673,-96.7776
81422,Naturita,CO,38.2962,-108.6808
82242,Van Tassell,WY,42.7065,-104.1205
84133,Salt Lake City,UT,40.7690,-111.8893
85262,Scottsdale,AZ,33.7986,-111.8708
93308,Bakersfield,CA,35.4875,-119.0090
93611,Clovis,CA,36.8401,-119.6611
94131,San Francisco,CA,37.7418,-122.4378
94249,Sacramento,CA,38.3774,-121.4444
96062,Millville,CA,40.5778,-122.1015
97378,Sheridan,OR,45.0895,-123.4079
15555,Quecreek,PA,40.0914,-79.0872
16662,Martinsburg,PA,40.3067,-78.3199
16940,Nelson,PA,41.9784,-77.2467
17212,Big Cove Tannery,PA,39.8123,-78.0634
8835,Manville,NJ,40.5389,-74.5922
12771,Port Jervis,NY,41.3747,-74.6632
12810,Athol,NY,43.4847,-73.8915
13350,Herkimer,NY,43.0381,-74.9846
24513,Lynchburg,VA,37.2458,-79.1335
22720,Goldvein,VA,38.4742,-77.6436
13655,Hogansburg,NY,44.9818,-74.6737
3266,Rumney,NH,43.8064,-71.8795
76503,Temple,TX,31.0540,-97.3203
77015,Houston,TX,29.7785,-95.1812
77550,Galveston,TX,29.2984,-94.7932
78041,Laredo,TX,27.5422,-99.4923
80720,Akron,CO,40.1242,-103.1836
83215,Atomic City,ID,43.4426,-112.8132
83554,White Bird,ID,45.7176,-116.2694
96720,Hilo,HI,19.7136,-155.0984
97368,Otis,OR,45.0099,-123.9118
97877,Sumpter,OR,44.7444,-118.2229
98622,Heisson,WA,45.8016,-122.5203
89009,Henderson,NV,35.9279,-114.9721
89047,Silverpeak,NV,37.7514,-117.6423
89412,Gerlach,NV,40.6525,-119.3565
99124,Elmer City,WA,47.9985,-118.9525
99554,Alakanuk,AK,62.6834,-164.6546
28772,Rosman,NC,35.1398,-82.8425
29708,Fort Mill,SC,35.0410,-80.9943
31069,Perry,GA,32.4608,-83.7354
36801,Opelika,AL,32.6605,-85.3992
38124,Memphis,TN,35.2017,-89.9715
47163,Otisco,IN,38.5445,-85.6683
47488,Hamblen,IN,39.2463,-86.1638
4033,Freeport,ME,44.4081,-70.4707
23191,Zanoni,VA,37.4182,-76.5084
23834,Colonial Heights,VA,37.2654,-77.4044
23839,Dendron,VA,37.0793,-76.9216
25140,Naoma,WV,37.8832,-81.4800
18221,Drifton,PA,41.0040,-75.9057
18825,Jackson,PA,41.8222,-75.5951
19115,Philadelphia,PA,40.0926,-75.0412
30663,Rutledge,GA,33.6146,-83.6116
15612,Alverton,PA,40.1369,-79.5903
6520,New Haven,CT,41.3657,-72.9275
93110,Santa Barbara,CA,34.4396,-119.7679
95005,Ben Lomond,CA,37.0843,-122.0852
95337,Manteca,CA,37.7823,-121.2358
98932,Granger,WA,46.3452,-120.1843
87184,Albuquerque,NM,35.0443,-106.6729
87537,Hernandez,NM,36.0940,-106.1747
37048,Cottontown,TN,36.4918,-86.5996
62549,Mt Zion,IL,39.7771,-88.8717
63453,Luray,MO,40.4893,-91.8725
63534,Callao,MO,39.7418,-92.6358
63834,Charleston,MO,36.9153,-89.3131
81658,Vail,CO,39.6242,-106.4973
70718,Brittany,LA,30.2010,-90.8689
71748,Ivan,AR,33.9755,-92.6478
72118,North Little Rock,AR,34.8133,-92.3023
78011,Charlotte,TX,28.7956,-98.7195
83547,Pollock,ID,45.2913,-116.3570
66075,Pleasanton,KS,38.1849,-94.7014
54931,Dale,WI,44.4163,-88.4649
48164,New Boston,MI,42.1281,-83.3879
48444,Imlay City,MI,43.0390,-83.0607
49245,Homer,MI,42.1472,-84.8079
50001,Ackworth,IA,41.3636,-93.4149
50128,Jamaica,IA,41.8559,-94.2998
38824,Baldwyn,MS,34.5112,-88.6305
39569,Pascagoula,MS,30.4411,-88.6345
40078,Willisburg,KY,37.8401,-85.1257
43430,Genoa,OH,41.5233,-83.3707
44618,Dalton,OH,40.7878,-81.6862
45418,Dayton,OH,39.7162,-84.2734
45789,Wingett Run,OH,39.5510,-81.2560
46507,Bristol,IN,41.7251,-85.8179
36869,Phenix City,AL,32.4331,-85.0451
37018,Beechgrove,TN,35.6428,-86.1669
37041,Clarksville,TN,36.4774,-87.3772
52809,Davenport,IA,41.6130,-90.6063
39330,Enterprise,MS,32.1704,-88.8387
61132,Loves Park,IL,42.3254,-89.1705
62903,Carbondale,IL,37.7586,-89.4158
72827,Bluffton,AR,34.8321,-93.7111
74052,Oilton,OK,36.0842,-96.5794
78701,Austin,TX,30.2713,-97.7410
79541,Ovalo,TX,32.1520,-99.8448
79560,Sylvester,TX,32.6840,-100.1998
80230,Denver,CO,39.7218,-104.8963
80836,Stratton,CO,39.2978,-102.5975
81290,Florence,CO,38.3584,-105.1069
74570,Stuart,OK,34.8581,-96.0923
76067,Mineral Wells,TX,32.8103,-98.1071
76476,Tolar,TX,32.3876,-97.9396
76561,Oglesby,TX,31.4303,-97.5295
64640,Gallatin,MO,39.9130,-93.9654
19429,Conshohocken,PA,40.2119,-75.3559
13788,Hobart,NY,42.3684,-74.6645
14717,Caneadea,NY,42.3707,-78.1934
25846,Glen Jean,WV,37.9278,-81.1517
27103,Winston Salem,NC,36.0665,-80.3073
30145,Kingston,GA,34.2380,-84.9780
30671,Maxeys,GA,33.7483,-83.1854
31719,Americus,GA,32.0855,-84.2527
32724,Deland,FL,29.0398,-81.2793
32757,Mount Dora,FL,28.7863,-81.6448
36035,Goshen,AL,31.7570,-86.1449
36776,Sawyerville,AL,32.7391,-87.7417
38844,Gattman,MS,33.8852,-88.2459
38954,Sidon,MS,33.4170,-90.2132
45814,Arlington,OH,40.8923,-83.6434
47369,Pennville,IN,40.4959,-85.1464
53932,Fall River,WI,43.4072,-89.0584
54022,River Falls,WI,44.8546,-92.6173
47851,Fontanet,IN,39.5737,-87.2454
50210,New Virginia,IA,41.1931,-93.7139
52206,Atkins,IA,41.9938,-91.8676
52760,Moscow,IA,41.5737,-91.0837
41351,Mistletoe,KY,37.3986,-83.7049
43014,Danville,OH,40.4708,-82.2642
13459,Sharon Springs,NY,42.7741,-74.5840
14642,Rochester,NY,43.2860,-77.6843
15323,Claysville,PA,40.1142,-80.4072
20711,Lothian,MD,38.8088,-76.6724
21105,Maryland Line,MD,39.7125,-76.6507
8629,Trenton,NJ,40.2194,-74.7333
10986,Tomkins Cove,NY,41.2715,-73.9868
29730,Rock Hill,SC,34.9146,-81.0125
11763,Medford,NY,40.8208,-72.9838
12139,Piseco,NY,43.4028,-74.5697
12509,La Grange,NY,41.6436,-73.8472
17560,New Providence,PA,39.9152,-76.2155
17839,Light Street,PA,41.0201,-76.4384
18045,Easton,PA,40.6815,-75.2672
76066,Millsap,TX,32.7154,-98.0017
81062,Olney Springs,CO,38.1939,-103.9228
85670,Fort Huachuca,AZ,31.8801,-109.7543
13503,Utica,NY,43.1019,-75.2312
16020,Boyers,PA,41.1094,-79.9082
2815,Clayville,RI,41.7779,-71.6701
4461,Milford,ME,44.9568,-68.6220
4546,Georgetown,ME,43.7670,-69.7498
7032,Kearny,NJ,40.7631,-74.1372
20690,Tall Timbers,MD,38.1654,-76.5328
22454,Dunnsville,VA,37.8548,-76.8130
75459,Howe,TX,33.5190,-96.6352
75904,Lufkin,TX,31.3399,-94.7630
77289,Houston,TX,29.8340,-95.4342
84719,Brian Head,UT,37.6639,-112.8108
91077,Arcadia,CA,33.7866,-118.2987
92840,Garden Grove,CA,33.7852,-117.9341
24639,Raven,VA,37.1366,-81.8907
25053,Danville,WV,38.0574,-81.8608
13135,Phoenix,NY,43.2359,-76.3134
659,Hatillo,PR,18.4330,-66.8004
1094,Wheelwright,MA,42.3582,-72.1408
2361,Plymouth,MA,41.9705,-70.7014
26425,Rowlesburg,WV,39.3200,-79.6844
41660,Teaberry,KY,37.4288,-82.6437
43623,Toledo,OH,41.7076,-83.6436
68041,Mead,NE,41.2209,-96.4772
68783,Verdigre,NE,42.6209,-98.1200
58418,Bowdon,ND,47.4216,-99.6395
62069,Mount Olive,IL,39.0776,-89.7342
37618,Bluff City,TN,36.4696,-82.2300
98665,Vancouver,WA,45.6813,-122.6671
97002,Aurora,OR,45.2346,-122.7975
97233,Portland,OR,45.5132,-122.4999
71242,Forest,LA,32.8239,-91.3989
76857,May,TX,31.9179,-98.9533
76878,Santa Anna,TX,31.7228,-99.2959
77478,Sugar Land,TX,29.6277,-95.6244
77834,Brenham,TX,30.2313,-96.2904
92583,San Jacinto,CA,33.7885,-116.9513
80940,Colorado Springs,CO,38.8247,-104.5620
74956,Shady Point,OK,35.1228,-94.7206
84073,Talmage,UT,40.3523,-110.4694
84316,Howell,UT,41.7732,-112.4597
86054,Shonto,AZ,36.6301,-110.6507
65707,Miller,MO,37.2203,-93.8418
87028,La Joya,NM,34.3489,-106.8053
89510,Reno,NV,39.8711,-119.7131
73647,Foss,OK,35.4554,-99.1744
46360,Michigan City,IN,41.7075,-86.8790
46614,South Bend,IN,41.6266,-86.2480
40813,Calvin,KY,36.7378,-83.6025
38860,Okolona,MS,33.9765,-88.7601
62856,Logan,IL,37.9943,-88.9417
62957,McClure,IL,37.3053,-89.4307
64436,Cosby,MO,39.8505,-94.6940
56127,Dunnell,MN,43.5567,-94.7743
58017,Cogswell,ND,46.0591,-97.8099
52171,Waucoma,IA,43.0681,-92.0526
49221,Adrian,MI,41.9009,-84.0459
49336,Morley,MI,43.4944,-85.4318
50525,Clarion,IA,42.7383,-93.7385
2840,Newport,RI,41.4880,-71.3126
4495,Winn,ME,45.4844,-68.3766
14301,Niagara Falls,NY,43.0966,-79.0393
15480,Smock,PA,39.9871,-79.7788
16121,Farrell,PA,41.2116,-80.4940
23487,Windsor,VA,36.8284,-76.7351
25040,Charlton Heights,WV,38.1256,-81.2450
19951,Harbeson,DE,38.6823,-75.2329
20277,Washington,DC,38.8933,-77.0146
22334,Alexandria,VA,38.8158,-77.0901
22606,Newport News,VA,38.1121,-77.3297
27230,Cedar Falls,NC,35.8028,-79.8797
27233,Climax,NC,35.9120,-79.6957
13082,Kirkville,NY,43.0995,-75.9619
76683,Riesel,TX,31.5039,-97.1798
76841,Fort McKavett,TX,30.8343,-100.0984
78827,Asherton,TX,28.4421,-99.7606
51451,Lanesboro,IA,42.1840,-94.6925
55408,Minneapolis,MN,44.9475,-93.2874
59212,Bainville,MT,48.1154,-104.1904
59902,Kalispell,MT,48.1894,-114.1435
60465,Palos Hills,IL,41.6994,-87.8298
65775,West Plains,MO,36.7191,-91.8741
70065,Kenner,LA,30.0229,-90.2513
70185,New Orleans,LA,30.0330,-89.8826
71751,Louann,AR,33.3979,-92.7712
72068,Higginson,AR,35.1699,-91.7083
57443,Cambria,SD,45.6979,-98.3177
63859,Independence,MO,36.2680,-90.0318
73773,Waukomis,OK,36.2731,-97.9034
75105,Chatfield,TX,32.2420,-96.3792
75615,Longview,TX,32.5112,-94.7835
31744,Doerun,GA,31.3250,-83.9094
32229,Jacksonville,FL,30.3449,-81.6831
32571,Milton,FL,30.6276,-87.1672
32706,Cassadaga,FL,28.9656,-81.2365
21713,Boonsboro,MD,39.5215,-77.6606
16341,Pleasantville,PA,41.5601,-79.5385
22640,Huntly,VA,38.8083,-78.1358
49080,Plainwell,MI,42.4629,-85.6126
84038,Laketown,UT,41.7976,-111.3702
86413,Golden Valley,AZ,35.1909,-114.2404
74465,Tahlequah,OK,35.9001,-95.0400
74345,Grove,OK,36.6036,-94.7297
37743,Greeneville,TN,36.1023,-82.8545
80946,Colorado Springs,CO,38.8247,-104.5620
38468,Leoma,TN,35.1350,-87.2922
91115,Pasadena,CA,33.7866,-118.2987
39566,Ocean Springs,MS,30.4411,-88.6345
98666,Vancouver,WA,45.8016,-122.5203
43986,Jewett,OH,40.3749,-80.9919
72338,Frenchmans Bayou,AR,35.4433,-90.1780
44102,Cleveland,OH,41.4735,-81.7358
94089,Sunnyvale,CA,37.4063,-122.0084
45684,Stout,OH,38.6645,-83.2976
65069,Rhineland,MO,38.7482,-91.5724
29340,Gaffney,SC,35.0365,-81.6250
65444,Bucyrus,MO,37.3660,-92.0737
29494,Hollywood,SC,32.7276,-80.2477
67052,Goddard,KS,37.6518,-97.5739
29645,Gray Court,SC,34.6013,-82.1311
68180,Omaha,NE,41.2917,-96.1711
68902,Hastings,NE,40.5896,-98.3972
56083,Sanborn,MN,44.2184,-95.1335
30364,Atlanta,GA,33.8444,-84.4741
72369,Oneida,AR,34.4599,-90.7802
10506,Bedford,NY,41.1958,-73.6278
71068,Ringgold,LA,32.3044,-93.3301
40014,Crestwood,KY,38.3351,-85.4584
40930,Dewitt,KY,36.8550,-83.7390
13312,Brantingham,NY,43.6896,-75.2725
12789,Woodridge,NY,41.7081,-74.5698
14472,Honeoye Falls,NY,42.9646,-77.5919
44878,Shiloh,OH,40.9497,-82.5300
95134,San Jose,CA,37.4125,-121.9446
35288,Birmingham,AL,33.4458,-86.9285
55953,Lyle,MN,43.5192,-92.9647
29014,Blackstock,SC,34.5521,-81.1354
50028,Baxter,IA,41.8206,-93.1474
8051,Mantua,NJ,39.7858,-75.1776
74145,Tulsa,OK,36.0963,-95.8847
38825,Becker,MS,33.8698,-88.4622
47882,Sullivan,IN,39.0905,-87.4067
39366,Vossburg,MS,31.9315,-88.9220
49023,Benton Harbor,MI,42.0016,-86.7153
49267,Ottawa Lake,MI,41.7576,-83.7095
11783,Seaford,NY,40.6798,-73.4896
12245,Albany,NY,42.6149,-73.9708
12861,Putnam Station,NY,43.7453,-73.4157
69135,Elsmere,NE,42.2116,-100.2201
6513,New Haven,CT,41.3158,-72.8803
7030,Hoboken,NJ,40.7449,-74.0329
71428,Flora,LA,31.6124,-93.0980
62083,Rosamond,IL,39.3547,-89.1999
62421,Claremont,IL,38.7555,-87.9533
64441,Denver,MO,40.3862,-94.2898
78237,San Antonio,TX,29.4226,-98.5658
58705,Minot AFB,ND,48.2342,-101.2972
60069,Lincolnshire,IL,42.1881,-87.9272
60667,Chicago,IL,41.8119,-87.6873
65446,Cherryville,MO,37.8171,-91.2683
92320,Calimesa,CA,33.9846,-117.0377
92410,San Bernardino,CA,34.1070,-117.2975
98326,Clallam Bay,WA,48.1816,-124.4119
3443,Chesterfield,NH,42.8718,-72.4716
4567,Small Point,ME,43.9009,-69.8595
5752,Poultney,VT,43.2253,-73.1413
5753,Middlebury,VT,44.0060,-73.1720
6382,Uncasville,CT,41.4572,-72.1146
1752,Marlborough,MA,42.3509,-71.5475
30552,Lakemont,GA,34.7636,-83.4420
31758,Thomasville,GA,30.8682,-83.9278
32831,Orlando,FL,28.4581,-81.1367
33009,Hallandale,FL,25.9871,-80.1500
13860,West Davenport,NY,42.1830,-74.9256
14612,Rochester,NY,43.2565,-77.6618
22748,Wolftown,VA,38.3727,-78.3805
17861,Paxtonville,PA,40.7709,-77.0846
18630,Meshoppen,PA,41.6536,-76.0318
18653,Ransom,PA,41.3939,-75.8245
718,Naguabo,PR,18.2205,-65.7429
13840,Smithboro,NY,42.0395,-76.4004
5085,West Newbury,VT,44.0626,-72.1395
95373,Standard,CA,37.9864,-120.2414
98387,Spanaway,WA,47.0778,-122.4052
90842,Long Beach,CA,33.7866,-118.2987
92158,San Diego,CA,33.0169,-116.8460
93207,California Hot Springs,CA,35.8714,-118.6821
96094,Weed,CA,41.4604,-122.3854
73141,Oklahoma City,OK,35.4985,-97.3931
74438,Hitchita,OK,35.5205,-95.7512
67481,Sylvan Grove,KS,39.0234,-98.4017
67575,Rush Center,KS,38.4459,-99.2630
64076,Odessa,MO,38.9892,-93.9537
64483,Rosendale,MO,40.0372,-94.8394
64498,Westboro,MO,40.5550,-95.3442
65409,Rolla,MO,37.8762,-91.7772
85327,Cave Creek,AZ,33.2765,-112.1872
85543,Pima,AZ,32.9038,-109.8500
60694,Chicago,IL,41.8119,-87.6873
60935,Essex,IL,41.1757,-88.1727
78146,Pettus,TX,28.6155,-97.8159
80266,Denver,CO,39.7472,-104.9915
80329,Boulder,CO,40.0878,-105.3735
70001,Metairie,LA,29.9841,-90.1690
70499,Franklinton,LA,30.8473,-90.1542
50116,Hamilton,IA,41.1797,-92.9478
50522,Burt,IA,43.1929,-94.1951
48277,Detroit,MI,42.2399,-83.1508
49248,Jasper,MI,41.7669,-84.0140
26369,Hepzibah,WV,39.3281,-80.3357
26810,Lost City,WV,38.9730,-78.7398
28112,Monroe,NC,34.9364,-80.5382
43116,Commercial Point,OH,39.7685,-83.0601
21250,Baltimore,MD,39.2582,-76.7131
4681,Stonington,ME,44.1682,-68.6641
5401,Burlington,VT,44.4840,-73.2213
14754,Little Genesee,NY,42.0200,-78.2037
77481,Thompsons,TX,29.4780,-95.5833
77976,Nursery,TX,28.9543,-97.0906
78545,Falcon Heights,TX,26.5619,-99.1339
79915,El Paso,TX,31.7430,-106.3696
79935,El Paso,TX,31.7845,-106.3371
58741,Granville,ND,48.2693,-100.8247
85074,Phoenix,AZ,33.2765,-112.1872
85258,Scottsdale,AZ,33.5666,-111.8934
74331,Afton,OK,36.6183,-94.9342
75929,Broaddus,TX,31.2424,-94.1768
73170,Oklahoma City,OK,35.3387,-97.5357
80640,Henderson,CO,39.8852,-104.8834
82636,Evansville,WY,42.8286,-106.1595
14901,Elmira,NY,42.0919,-76.7922
16503,Erie,PA,42.1278,-80.0635
17080,Pillow,PA,40.6404,-76.8035
32626,Chiefland,FL,29.4532,-82.8684
23398,Jamesville,VA,37.5343,-75.8771
23941,Fort Mitchell,VA,36.9481,-78.2483
21669,Taylors Island,MD,38.4584,-76.3020
17951,Mar Lin,PA,40.6795,-76.2450
19401,Norristown,PA,40.1237,-75.3384
30111,Clarkdale,GA,33.9125,-84.5572
12305,Schenectady,NY,42.8145,-73.9434
26444,Tunnelton,WV,39.3776,-79.7643
28018,Bostic,NC,35.4412,-81.7995
28109,Misenheimer,NC,35.4857,-80.2881
52235,Hills,IA,41.5546,-91.5353
52732,Clinton,IA,41.8616,-90.2154
55592,Maple Plain,MN,45.2009,-93.8881
12402,Kingston,NY,41.8788,-74.3457
13843,South New Berlin,NY,42.5333,-75.3801
24504,Lynchburg,VA,37.4003,-79.1260
25148,Orgas,WV,38.0436,-81.5717
19192,Philadelphia,PA,39.9511,-75.1676
19367,Pomeroy,PA,39.9648,-75.8829
75939,Corrigan,TX,30.9990,-94.7994
77592,Texas City,TX,29.3305,-94.8002
84657,Sigurd,UT,38.8349,-111.9430
65660,Graff,MO,37.3306,-92.2721
67140,South Haven,KS,37.0655,-97.3656
68824,Cairo,NE,40.9986,-98.6042
87037,Nageezi,NM,36.1780,-107.8004
87581,Vallecitos,NM,36.5371,-106.1340
89043,Pioche,NV,38.1222,-114.4032
78211,San Antonio,TX,29.3622,-98.5464
78555,McAllen,TX,26.2507,-97.7114
79535,Maryneal,TX,32.2492,-100.4490
79852,Terlingua,TX,29.4413,-103.6364
72121,Pangburn,AR,35.4329,-91.8190
73113,Oklahoma City,OK,35.5514,-97.4075
74399,Commerce,OK,36.9329,-94.8730
6460,Milford,CT,41.2195,-73.0554
7939,Lyons,NJ,40.5666,-74.5998
8075,Riverside,NJ,40.0294,-74.9541
10607,White Plains,NY,41.0412,-73.8095
924,San Juan,PR,18.4019,-66.0119
2139,Cambridge,MA,42.3643,-71.1043
2305,Brockton,MA,41.9705,-70.7014
2407,Scituate,MA,42.1361,-70.6883
65571,Summersville,MO,37.1842,-91.6506
66223,Shawnee Mission,KS,38.8606,-94.6659
53167,Rochester,WI,42.7426,-88.2231
37659,Jonesborough,TN,36.2938,-82.4970
29599,Socastee,SC,33.6945,-79.0117
13664,Morristown,NY,44.5856,-75.6480
15341,Holbrook,PA,39.8264,-80.3505
20026,Washington,DC,38.8933,-77.0146
22959,North Garden,VA,37.9360,-78.6409
41037,Elizaville,KY,38.3481,-83.7186
43343,Quincy,OH,40.3089,-83.9733
43925,East Springfield,OH,40.4503,-80.8602
44514,Youngstown,OH,41.0162,-80.6155
45412,Dayton,OH,39.7505,-84.2686
97640,Summer Lake,OR,42.9618,-120.7707
98564,Mossyrock,WA,46.5049,-122.4867
99128,Farmington,ID,47.0916,-116.9916
99336,Kennewick,WA,46.2110,-119.1637
56477,Sebeka,MN,46.6300,-95.0122
57251,Marvin,SD,45.2683,-96.9274
57273,Waubay,SD,45.3697,-97.2924
61453,Little York,IL,41.0107,-90.7539
62837,Fairfield,IL,38.3746,-88.3574
63740,Chaffee,MO,37.1826,-89.6838
63860,Kewanee,MO,36.6709,-89.5734
44233,Hinckley,OH,41.2335,-81.7348
44425,Hubbard,OH,41.1667,-80.5773
46227,Indianapolis,IN,39.6785,-86.1297
49653,Lake Leelanau,MI,44.9751,-85.7233
41503,South Williamson,KY,37.6706,-82.2847
36032,Fort Deposit,AL,31.9843,-86.5709
39272,Jackson,MS,32.3113,-90.3972
96849,Honolulu,HI,24.8598,-168.0218
98046,Lynnwood,WA,48.0373,-121.6823
98648,Stevenson,WA,45.6696,-121.9133
99767,Rampart,AK,65.5079,-150.1636
5060,Randolph,VT,43.9544,-72.6692
5481,Saint Albans Bay,VT,44.8249,-72.8958
1938,Ipswich,MA,42.6830,-70.8401
29419,Charleston,SC,32.8489,-79.8577
31071,Pineview,GA,32.1370,-83.5260
47974,Perrysville,IN,40.0434,-87.4655
38827,Belmont,MS,34.5132,-88.2092
39735,Ackerman,MS,33.3720,-89.1762
21904,Port Deposit,MD,39.6188,-76.0853
22649,Middletown,VA,39.0048,-78.2478
23177,Walkerton,VA,37.7282,-76.9990
29066,Batesburg-Leesville,SC,33.9057,-81.5302
30567,Pendergrass,GA,34.1673,-83.6854
35214,Birmingham,AL,33.5588,-86.8920
37010,Adams,TN,36.5696,-87.1003
37059,Dowelltown,TN,35.9940,-85.9285
37086,La Vergne,TN,36.0133,-86.5627
37171,Southside,TN,36.3547,-87.3057
37682,Milligan College,TN,36.2960,-82.3054
38347,Jacks Creek,TN,35.4624,-88.5054
18625,Lake Winola,PA,41.5094,-75.8546
19155,Philadelphia,PA,40.0018,-75.1179
20706,Lanham,MD,38.9641,-76.8533
21210,Baltimore,MD,39.3525,-76.6345
23140,Providence Forge,VA,37.4386,-77.0358
24899,Yukon,WV,37.3752,-81.6539
43150,Rushville,OH,39.7783,-82.4146
33499,Boca Raton,FL,26.6459,-80.4303
27311,Pelham,NC,36.4908,-79.4807
27862,Pendleton,NC,36.4909,-77.1981
38567,Hickman,TN,36.1405,-85.9107
38758,Mattson,MS,34.0956,-90.5104
50368,Des Moines,IA,41.6727,-93.5722
50559,Lone Rock,IA,43.2048,-94.3153
50670,Shell Rock,IA,42.7104,-92.5975
52237,Hopkinton,IA,42.3461,-91.2421
59501,Havre,MT,48.5846,-109.7837
67033,Richland,KS,37.5193,-97.1525
68278,Omaha,NE,41.2643,-95.9464
63821,Arbyrd,MO,36.0483,-90.2334
63955,Oxly,MO,36.6048,-90.6858
55430,Minneapolis,MN,45.0593,-93.2998
60684,Chicago,IL,41.8119,-87.6873
60931,Donovan,IL,40.8763,-87.6016
61553,Norris,IL,40.4493,-90.1618
62272,Percy,IL,38.0064,-89.6165
62346,La Prairie,IL,40.1518,-90.9543
55045,Lindstrom,MN,45.3873,-92.8355
73402,Ardmore,OK,34.2889,-97.2481
73447,Mannsville,OK,34.2257,-96.8611
75607,Longview,TX,32.5112,-94.7835
32658,La Crosse,FL,29.8451,-82.3985
15442,Grindstone,PA,40.0134,-79.8311
7666,Teaneck,NJ,40.8910,-74.0112
938,San Juan,PR,18.4105,-66.0605
30370,Atlanta,GA,33.8444,-84.4741
30919,Augusta,GA,33.3860,-82.0910
33915,Cape Coral,FL,26.6599,-81.8934
33956,Saint James City,FL,26.5364,-82.0915
35490,Vance,AL,33.1973,-87.2516
35771,Section,AL,34.5464,-85.9828
96715,Hanamaulu,HI,21.9800,-159.5124
98581,Ryderwood,WA,46.3733,-123.0531
56277,Olivia,MN,44.7664,-94.9962
57569,Reliance,SD,43.8400,-99.5746
57790,Wall,SD,44.0185,-102.2378
58319,Bremen,ND,47.6635,-99.6644
58355,Nekoma,ND,48.5918,-98.3683
59313,Baker,MT,46.3573,-104.2530
60408,Braidwood,IL,41.2622,-88.2231
78705,Austin,TX,30.2924,-97.7386
93772,Fresno,CA,36.7464,-119.6397
95064,Santa Cruz,CA,37.0002,-122.0603
87736,Rainsville,NM,35.9741,-105.1763
88047,Mesilla Park,NM,32.2132,-106.7199
89146,Las Vegas,NV,36.1411,-115.2249
90220,Compton,CA,33.8906,-118.2367
64657,McFall,MO,40.1306,-94.2167
61546,Manito,IL,40.4420,-89.7880
61632,Peoria,IL,40.7653,-89.5692
61870,Ridge Farm,IL,39.9024,-87.6272
58442,Gackle,ND,46.5968,-99.1616
58731,Deering,ND,48.4223,-100.9841
54201,Algoma,WI,44.6136,-87.4650
57118,Sioux Falls,SD,43.6746,-96.7913
62513,Blue Mound,IL,39.7163,-89.1327
49871,Palmer,MI,46.4403,-87.5899
63530,Atlanta,MO,39.9117,-92.4641
63367,Lake Saint Louis,MO,38.7966,-90.7853
55168,Saint Paul,MN,45.0059,-93.1059
78522,Brownsville,TX,26.1889,-97.7643
61450,La Harpe,IL,40.5674,-90.9707
62324,Clayton,IL,39.9890,-90.9498
77072,Houston,TX,29.7009,-95.5900
83676,Wilder,ID,43.6539,-116.9012
77905,Victoria,TX,28.7371,-97.0146
85227,Chandler Heights,AZ,33.2122,-111.6862
85736,Tucson,AZ,31.9798,-111.2940
78338,Armstrong,TX,26.8702,-97.7743
79410,Lubbock,TX,33.5701,-101.8890
79529,Knox City,TX,33.4232,-99.8201
79561,Trent,TX,32.5041,-100.1582
80538,Loveland,CO,40.4356,-105.0873
97031,Hood River,OR,45.6731,-121.5368
97223,Portland,OR,45.4388,-122.7822
88135,Texico,NM,34.5115,-103.0687
95358,Modesto,CA,37.6229,-121.0518
92553,Moreno Valley,CA,33.9232,-117.2421
76933,Bronte,TX,31.8874,-100.2866
77631,Orange,TX,30.0548,-93.9031
30450,Portal,GA,32.5557,-81.9242
34974,Okeechobee,FL,27.1944,-80.8464
35287,Birmingham,AL,33.5446,-86.9292
35739,Ardmore,AL,34.9723,-86.8135
37063,Fosterville,TN,35.8596,-86.4210
38136,Memphis,TN,35.2017,-89.9715
38315,Bethel Springs,TN,35.2609,-88.6428
41000,Fort Mitchell,KY,39.0358,-84.5464
41018,Erlanger,KY,39.0138,-84.6023
14482,Le Roy,NY,42.9799,-77.9705
62871,Omaha,IL,37.8776,-88.2911
63057,Liguori,MO,38.3419,-90.4082
71023,Doyline,LA,32.4875,-93.3904
57574,Tuthill,SD,43.1264,-101.3747
48768,Vassar,MI,43.3704,-83.5792
14214,Buffalo,NY,42.9414,-78.8374
15236,Pittsburgh,PA,40.3429,-79.9793
15311,Amity,PA,40.0429,-80.1883
17870,Selinsgrove,PA,40.8120,-76.8614
18105,Allentown,PA,40.6934,-75.4712
19901,Dover,DE,39.1643,-75.5116
17253,Saltillo,PA,40.2109,-78.0057
8091,West Berlin,NJ,39.8077,-74.9339
8840,Metuchen,NJ,40.5434,-74.3587
10268,New York,NY,40.7808,-73.9772
10917,Central Valley,NY,41.3223,-74.1235
667,Lajas,PR,18.0178,-67.0423
1007,Belchertown,MA,42.2784,-72.4110
29038,Cope,SC,33.3721,-80.9841
29934,Pineland,SC,32.6020,-81.1245
30014,Covington,GA,33.5814,-83.8510
12784,Thompsonville,NY,41.6761,-74.6217
13104,Manlius,NY,42.9873,-75.9676
13208,Syracuse,NY,43.0746,-76.1475
28037,Denver,NC,35.5014,-81.0041
8889,Whitehouse Station,NJ,40.6129,-74.7668
10547,Mohegan Lake,NY,41.3147,-73.8512
46953,Marion,IN,40.5309,-85.6592
47375,Richmond,IN,39.8604,-85.0160
41164,Olive Hill,KY,38.2922,-83.1838
41558,Ransom,KY,37.5336,-82.2115
53065,Oakfield,WI,43.6899,-88.5659
55985,West Concord,MN,44.1572,-92.8936
56052,Kilkenny,MN,44.3203,-93.5707
45617,Bourneville,OH,39.2804,-83.1590
36024,Eclectic,AL,32.6976,-86.0160
39320,Bailey,MS,32.5355,-88.7264
45410,Dayton,OH,39.7483,-84.1589
20439,Washington,DC,38.8933,-77.0146
3592,Pittsburg,NH,45.0855,-71.3072
4288,West Minot,ME,44.1970,-70.2395
6250,Mansfield Center,CT,41.7685,-72.2001
17257,Shippensburg,PA,40.0533,-77.5062
11937,East Hampton,NY,40.9954,-72.1856
12527,Glenham,NY,41.5202,-73.9333
13658,Lisbon,NY,44.7445,-75.2812
84072,Tabiona,UT,40.3630,-110.7013
91302,Calabasas,CA,34.1335,-118.6646
92220,Banning,CA,33.9208,-116.8790
85061,Phoenix,AZ,33.2765,-112.1872
85545,Roosevelt,AZ,33.6240,-111.0106
97876,Summerville,OR,45.5254,-118.0119
98560,Matlock,WA,47.2633,-123.4310
95637,Guinda,CA,38.8305,-122.1994
95977,Smartville,CA,39.1932,-121.2898
96121,Milford,CA,40.1690,-120.3782
96797,Waipahu,HI,21.4035,-158.0139
78940,Fayetteville,TX,29.9415,-96.6598
79761,Odessa,TX,31.8545,-102.3591
79961,El Paso,TX,31.6948,-106.3000
51647,Northboro,IA,40.5994,-95.3642
54741,Fairchild,WI,44.6013,-90.9885
55306,Burnsville,MN,44.7326,-93.2891
55341,Hanover,MN,45.1555,-93.6637
55470,Minneapolis,MN,45.0159,-93.4719
67132,Rosalia,KS,37.8139,-96.5786
63111,Saint Louis,MO,38.5593,-90.2517
63666,Reynolds,MO,37.3272,-91.0243
48109,Ann Arbor,MI,42.2916,-83.7183
50117,Hamlin,IA,41.6718,-94.8492
50332,Des Moines,IA,41.6727,-93.5722
51050,Remsen,IA,42.7861,-95.9482
34260,Manasota,FL,27.4272,-82.4387
39476,Richton,MS,31.3557,-88.8588
4988,Unity,ME,44.6051,-69.3302
6836,Greenwich,CT,41.3089,-73.3637
6907,Stamford,CT,41.0968,-73.5213
90065,Los Angeles,CA,34.1076,-118.2266
98133,Seattle,WA,47.7339,-122.3446
82635,Edgerton,WY,43.4105,-106.2421
85230,Casa Grande,AZ,32.7429,-111.7895
85261,Scottsdale,AZ,33.2765,-112.1872
75980,Zavalla,TX,31.1547,-94.3630
76040,Euless,TX,32.8262,-97.0972
76048,Granbury,TX,32.4247,-97.7889
76642,Groesbeck,TX,31.5107,-96.5153
76854,London,TX,30.6467,-99.5411
93303,Bakersfield,CA,35.2944,-118.9052
93915,Salinas,CA,36.3543,-121.1329
93925,Chualar,CA,36.5813,-121.4660
79980,El Paso,TX,31.6948,-106.3000
90502,Torrance,CA,33.8334,-118.2920
92022,El Cajon,CA,33.0169,-116.8460
71461,Newllano,LA,31.1148,-93.2798
13688,South Rutland,NY,43.9517,-75.7678
14138,South Dayton,NY,42.3721,-79.0555
8071,Pitman,NJ,39.7310,-75.1301
8862,Perth Amboy,NJ,40.4300,-74.4173
2146,Brookline,MA,42.3082,-71.0887
2344,Middleboro,MA,41.9705,-70.7014
2805,Foster,RI,41.8305,-71.7117
2829,Harmony,RI,41.8793,-71.5894
5233,Sudbury,VT,43.7615,-73.1877
5760,Orwell,VT,43.8015,-73.2869
6101,Hartford,CT,41.7801,-72.6771
7735,Keyport,NJ,40.4397,-74.1937
16827,Boalsburg,PA,40.7827,-77.7869
17035,Honey Grove,PA,40.4305,-77.5843
99624,Larsen Bay,AK,57.5292,-154.0029
44643,Magnolia,OH,40.6465,-81.3088
26525,Bruceton Mills,WV,39.6469,-79.5985
27808,Bath,NC,35.4703,-76.7786
33082,Pembroke Pines,FL,26.1457,-80.4483
16037,Harmony,PA,40.8215,-80.1303
17834,Kulpmont,PA,40.7924,-76.4713
6468,Monroe,CT,41.3360,-73.2224
7763,Tennent,NJ,40.3027,-74.2493
8827,Hampton,NJ,40.6774,-74.9688
12233,Albany,NY,42.6149,-73.9708
12515,Clintondale,NY,41.6811,-74.0642
22406,Fredericksburg,VA,38.3873,-77.5468
3826,East Hampstead,NH,42.8904,-71.1230
4554,New Harbor,ME,43.8630,-69.5131
13638,Felts Mills,NY,44.0211,-75.7611
14054,East Bethany,NY,42.9037,-78.1348
15321,Cecil,PA,40.3229,-80.1875
20918,Silver Spring,MD,39.1440,-77.2076
21161,White Hall,MD,39.6597,-76.5686
1929,Essex,MA,42.6318,-70.7793
2724,Fall River,MA,41.6842,-71.1744
24974,Secondcreek,WV,37.6659,-80.4434
76648,Hubbard,TX,31.8412,-96.8082
77216,Houston,TX,29.8340,-95.4342
65344,Miami,MO,39.3109,-93.2259
66711,Arcadia,KS,37.6443,-94.6490
66853,Hamilton,KS,38.0001,-96.2127
67022,Caldwell,KS,37.0625,-97.6078
67051,Geuda Springs,KS,37.1048,-97.1924
16368,Irvine,PA,41.8117,-79.2643
19075,Oreland,PA,40.1146,-75.1863
24431,Crimora,VA,38.1679,-78.8422
24901,Lewisburg,WV,37.8085,-80.4449
26034,Chester,WV,40.6093,-80.5589
26574,Grant Town,WV,39.5587,-80.1762
27553,Manson,NC,36.4842,-78.3062
5747,Granville,VT,43.9998,-72.8393
7974,New Providence,NJ,40.6983,-74.4023
13333,East Springfield,NY,42.8430,-74.8088
29545,Green Sea,SC,34.1642,-78.9670
13820,Oneonta,NY,42.4698,-75.0519
14437,Dansville,NY,42.5768,-77.7193
15285,Pittsburgh,PA,40.4344,-80.0248
35765,Pisgah,AL,34.6956,-85.8048
35813,Huntsville,AL,34.7340,-86.5229
37885,Vonore,TN,35.5434,-84.1933
43811,Conesville,OH,40.1801,-81.9042
44706,Canton,OH,40.7769,-81.4059
45142,Lynchburg,OH,39.2131,-83.8074
46051,Lapel,IN,40.0656,-85.8463
46590,Winona Lake,IN,41.2216,-85.8180
28645,Lenoir,NC,35.9348,-81.5448
29065,Jenkinsville,SC,34.2956,-81.3007
29644,Fountain Inn,SC,34.6813,-82.1973
26590,Wana,WV,39.7045,-80.2718
31822,Pine Mountain,GA,32.8672,-84.8844
31906,Columbus,GA,32.4684,-84.9513
98613,Centerville,WA,45.7228,-120.9616
81429,Paradox,CO,38.3711,-108.9698
85390,Wickenburg,AZ,33.9611,-112.7695
86045,Tuba City,AZ,36.0612,-111.0683
76107,Fort Worth,TX,32.7385,-97.3842
77347,Humble,TX,29.8340,-95.4342
95318,El Portal,CA,37.6736,-119.8131
87937,Hatch,NM,32.6040,-107.1681
79740,Girvin,TX,31.0196,-102.4768
62655,Kilbourne,IL,40.1474,-90.0070
65461,Duke,MO,37.6857,-92.0434
56528,Dent,MN,46.5281,-95.7966
66548,Waterville,KS,39.6914,-96.7619
60125,Carol Stream,IL,41.8397,-88.0887
60922,Chebanse,IL,41.0056,-87.9065
61329,Ladd,IL,41.3803,-89.2124
62257,Marissa,IL,38.2601,-89.7363
55730,Grand Rapids,MN,47.0878,-93.9214
20506,Washington,DC,38.8994,-77.0377
78066,Rio Medina,TX,29.4663,-98.8916
64489,Stanberry,MO,40.2188,-94.5455
65723,Pierce City,MO,36.9565,-94.0213
67202,Wichita,KS,37.6870,-97.3336
74557,Moyers,OK,34.3916,-95.6737
75255,Dallas,TX,32.6698,-96.6149
75477,Roxton,TX,33.5430,-95.7238
75791,Whitehouse,TX,32.2261,-95.2175
64454,Gower,MO,39.6122,-94.5929
80835,Simla,CO,39.1728,-104.0879
82512,Crowheart,WY,43.4287,-109.2181
56710,Alvarado,MN,48.1925,-96.9986
90847,Long Beach,CA,33.7866,-118.2987
92501,Riverside,CA,33.9912,-117.3707
92539,Anza,CA,33.5506,-116.6736
92880,Corona,CA,33.9038,-117.6022
99117,Creston,WA,47.7578,-118.4934
99514,Anchorage,AK,61.1089,-149.4403
49918,Copper Harbor,MI,47.4676,-87.8821
50475,Sheffield,IA,42.8852,-93.2208
66763,Frontenac,KS,37.4558,-94.6909
67012,Beaumont,KS,37.6601,-96.5337
53194,Woodworth,WI,42.5810,-87.6629
15713,Aultman,PA,40.5627,-79.2597
16255,Sligo,PA,41.1154,-79.4687
18991,Warminster,PA,40.3286,-75.1028
67217,Wichita,KS,37.6242,-97.3631
6374,Plainfield,CT,41.6848,-71.9191
69218,Merriman,NE,42.8481,-101.6567
69352,Lyman,NE,41.8496,-103.9947
49720,Charlevoix,MI,45.2942,-85.2452
49793,Trout Lake,MI,46.1992,-85.0529
73147,Oklahoma City,OK,35.5514,-97.4075
74864,Prague,OK,35.4907,-96.6914
63357,Marthasville,MO,38.6476,-91.0916
63348,Foristell,MO,38.8144,-90.9443
63956,Patterson,MO,37.1996,-90.5235
68572,Lincoln,NE,40.7845,-96.6888
72727,Elkins,AR,35.9705,-93.9430
71914,Hot Springs National Park,AR,34.5137,-92.9685
92024,Encinitas,CA,33.0531,-117.2686
93035,Oxnard,CA,34.1793,-119.2219
82649,Shoshoni,WY,43.2323,-108.1556
77901,Victoria,TX,28.8064,-96.9936
84025,Farmington,UT,40.9883,-111.8885
55037,Hinckley,MN,46.0081,-92.7935
31816,Manchester,GA,32.8624,-84.6088
14506,Mendon,NY,42.9992,-77.5026
32190,Seville,FL,29.3321,-81.5001
94406,San Mateo,CA,37.3811,-122.3348
94589,Vallejo,CA,38.1521,-122.2507
95240,Lodi,CA,38.1246,-121.2504
92519,Riverside,CA,33.7529,-116.0556
93714,Fresno,CA,36.7464,-119.6397
734,Ponce,PR,17.9995,-66.6439
56381,Starbuck,MN,45.5783,-95.5520
57326,Chamberlain,SD,43.7173,-99.1317
41039,Ewing,KY,38.4250,-83.8629
44057,Madison,OH,41.8006,-81.0602
44198,Cleveland,OH,41.6857,-81.6728
44858,Norwalk,OH,41.2614,-82.5890
45630,Friendship,OH,38.7933,-82.9605
32478,Chipley,FL,30.7782,-85.5383
32832,Orlando,FL,28.3960,-81.1765
34476,Ocala,FL,29.0809,-82.2100
35976,Guntersville,AL,34.3508,-86.3048
47925,Buffalo,IN,40.8823,-86.7436
48657,Sanford,MI,43.6978,-84.3917
49327,Grant,MI,43.3402,-85.8257
30335,Atlanta,GA,33.7524,-84.3897
37217,Nashville,TN,36.1034,-86.6662
78155,Seguin,TX,29.5648,-97.9628
79229,Dickens,TX,33.6545,-100.7552
72661,Oakland,AR,36.4597,-92.6027
73153,Oklahoma City,OK,35.5514,-97.4075
73638,Crawford,OK,35.8195,-99.7743
74137,Tulsa,OK,36.0254,-95.9295
88323,Fort Stanton,NM,33.4924,-105.5302
18219,Conyngham,PA,40.9888,-76.0596
18627,Lehman,PA,41.3166,-76.0210
19495,Valley Forge,PA,39.9832,-75.7481
1746,Holliston,MA,42.1961,-71.4380
4027,Lebanon,ME,43.4033,-70.9172
4441,Greenville,ME,45.5177,-69.5223
5342,Jacksonville,VT,42.7816,-72.8061
14606,Rochester,NY,43.1681,-77.6813
7852,Ledgewood,NJ,40.8763,-74.6577
17140,Harrisburg,PA,40.3086,-76.8464
17262,Spring Run,PA,40.1537,-77.7088
26408,Mount Clare,WV,39.2059,-80.2942
27804,Rocky Mount,NC,35.9738,-77.8269
33233,Miami,FL,25.5584,-80.4582
51454,Manilla,IA,41.8855,-95.2216
64810,Goodman,MO,36.7394,-94.4059
68961,Nelson,NE,40.1948,-98.0386
63087,Valles Mines,MO,38.0248,-90.4467
63383,Warrenton,MO,38.8189,-91.1700
57003,Baltic,SD,43.7263,-96.7470
60136,Gilberts,IL,42.0995,-88.3694
61727,Clinton,IL,40.1455,-88.9678
47858,Lewis,IN,39.2556,-87.2359
47904,Lafayette,IN,40.4287,-86.8768
48417,Burt,MI,43.2622,-83.9400
48475,Ubly,MI,43.6737,-82.9257
70177,New Orleans,LA,30.0330,-89.8826
72385,Twist,AR,35.2965,-90.7724
73146,Oklahoma City,OK,35.5514,-97.4075
75094,Plano,TX,33.0097,-96.6111
75374,Dallas,TX,32.7673,-96.7776
75960,Moscow,TX,30.9037,-94.8092
45405,Dayton,OH,39.7885,-84.2111
55735,Finlayson,MN,46.2503,-93.0446
56279,Pennock,MN,45.2006,-95.1775
56750,Red Lake Falls,MN,47.8864,-96.2903
53150,Muskego,WI,42.9012,-88.1246
53708,Madison,WI,43.0696,-89.4239
54472,Marshfield,WI,44.4666,-90.0214
55038,Hugo,MN,45.1613,-92.9960
55080,Stanchfield,MN,45.6518,-93.2144
55144,Saint Paul,MN,45.0059,-93.1059
55447,Minneapolis,MN,45.0034,-93.4926
56088,Truman,MN,43.8343,-94.4436
39776,Woodland,MS,33.7792,-89.0395
40049,Nerinx,KY,37.6603,-85.3932
40849,Lejunior,KY,36.8852,-83.1246
30148,Marble Hill,GA,34.4530,-84.2593
30187,Winston,GA,33.6704,-84.8381
30303,Atlanta,GA,33.7529,-84.3901
31066,Musella,GA,32.8000,-84.0059
32507,Pensacola,FL,30.3609,-87.3345
33759,Clearwater,FL,27.9803,-82.7165
43731,Crooksville,OH,39.7424,-82.0935
45176,Williamsburg,OH,39.0814,-84.0291
45298,Cincinnati,OH,39.1668,-84.5382
45333,Houston,OH,40.2601,-84.3361
46680,South Bend,IN,41.5968,-86.2930
34471,Ocala,FL,29.1712,-82.1039
36041,Highland Home,AL,31.9135,-86.3008
42344,Graham,KY,37.2401,-87.2940
43326,Kenton,OH,40.6423,-83.6058
43560,Sylvania,OH,41.7064,-83.7102
48112,Belleville,MI,42.2399,-83.1508
50325,Clive,IA,41.6079,-93.7809
14737,Franklinville,NY,42.3356,-78.4311
17349,New Freedom,PA,39.7534,-76.6811
3868,Rochester,NH,43.3406,-70.9631
4341,Coopers Mills,ME,44.2588,-69.5510
4947,Kingfield,ME,45.0181,-70.2669
6160,Hartford,CT,41.7665,-72.6933
25607,Amherstdale,WV,37.7881,-81.8025
20242,Washington,DC,38.8678,-77.0289
18473,White Mills,PA,41.5252,-75.2078
18654,Shawanese,PA,41.3501,-76.0319
18930,Kintnersville,PA,40.5371,-75.2119
12075,Ghent,NY,42.3058,-73.6514
1253,Otis,MA,42.1984,-73.1021
1462,Lunenburg,MA,42.5828,-71.7205
61416,Bardolph,IL,40.4968,-90.5633
56762,Warren,MN,48.1955,-96.7421
32430,Clarksville,FL,30.4388,-85.2438
33615,Tampa,FL,28.0054,-82.5778
33633,Tampa,FL,27.8720,-82.4388
39507,Gulfport,MS,30.3970,-89.0400
46941,Lagro,IN,40.8320,-85.7033
48461,North Branch,MI,43.2107,-83.2055
49555,Grand Rapids,MI,43.0314,-85.5503
49880,Rock,MI,46.0861,-87.2015
12489,Wawarsing,NY,41.7578,-74.3539
38828,Blue Springs,MS,34.4131,-88.8729
53580,Rewey,WI,42.8504,-90.3761
29756,Garden City,SC,33.5960,-79.0014
30082,Smyrna,GA,33.8591,-84.5374
27248,Franklinville,NC,35.7614,-79.6984
28333,Dudley,NC,35.2932,-78.0190
31635,Lakeland,GA,31.0556,-83.0710
23510,Norfolk,VA,36.8525,-76.2903
12418,Cornwallville,NY,42.3576,-74.1514
13133,Colesville,NY,42.2170,-75.7240
28610,Claremont,NC,35.7252,-81.1428
25015,Belle,WV,38.2249,-81.5151
92610,Foothill Ranch,CA,33.6855,-117.6669
87022,Isleta,NM,34.9062,-106.6930
88416,Conchas Dam,NM,35.3879,-104.1828
89413,Glenbrook,NV,39.0833,-119.9396
90069,West Hollywood,CA,34.0910,-118.3813
95445,Gualala,CA,38.8134,-123.5576
95482,Ukiah,CA,39.1549,-123.2009
95680,Ryde,CA,38.2329,-121.5684
85376,Sun City West,AZ,33.2765,-112.1872
97023,Estacada,OR,45.2674,-122.2846
11417,Ozone Park,NY,40.6755,-73.8448
648,Fajardo,PR,18.3330,-65.6562
25276,Spencer,WV,38.7802,-81.3424
25851,Harper,WV,37.8025,-81.2828
28382,Roseboro,NC,34.9453,-78.5143
33119,Miami Beach,FL,25.7845,-80.1320
36317,Clopton,AL,31.6451,-85.3781
36435,Coy,AL,31.8749,-87.4311
36865,Loachapoka,AL,32.5782,-85.3490
38186,Memphis,TN,35.2017,-89.9715
24077,Cloverdale,VA,37.3693,-79.9030
30234,Jenkinsburg,GA,33.3260,-84.0335
31798,Wray,GA,31.6218,-83.0550
78278,San Antonio,TX,29.4375,-98.4616
79940,El Paso,TX,31.6948,-106.3000
73852,Mooreland,OK,36.4569,-99.1300
97401,Eugene,OR,44.0609,-123.0828
88321,Encino,NM,34.7507,-105.5131
90311,Inglewood,CA,33.7866,-118.2987
92346,Highland,CA,34.1272,-117.2007
94114,San Francisco,CA,37.7584,-122.4351
76179,Fort Worth,TX,32.8765,-97.4125
85341,Lukeville,AZ,31.9701,-111.8907
77969,La Salle,TX,28.7720,-96.6373
42127,Cave City,KY,37.1312,-85.9463
43041,Marysville,OH,40.3069,-83.3606
60969,Union Hill,IL,41.1091,-88.1473
61052,Monroe Center,IL,42.1105,-89.0075
55070,Saint Francis,MN,45.3959,-93.3701
48610,Alger,MI,44.1423,-84.1450
49664,Maple City,MI,44.8886,-85.8991
2641,East Dennis,MA,41.7347,-70.2047
2669,West Chatham,MA,41.6736,-69.9949
67482,Talmage,KS,39.0273,-97.2592
68531,Lincoln,NE,40.9008,-96.7201
59872,Superior,MT,47.1139,-114.8451
59901,Kalispell,MT,48.2014,-114.3220
60153,Maywood,IL,41.8803,-87.8446
61702,Bloomington,IL,40.5192,-88.8643
58721,Bowbells,ND,48.8120,-102.2736
72358,Luxora,AR,35.7771,-89.8921
79556,Sweetwater,TX,32.4656,-100.3981
95425,Cloverdale,CA,38.7957,-122.9970
92856,Orange,CA,33.6403,-117.7694
87416,Fruitland,NM,36.6548,-108.4500
87533,Espanola,NM,36.6189,-106.7551
95139,San Jose,CA,37.2262,-121.7651
90095,Los Angeles,CA,33.7866,-118.2987
37902,Knoxville,TN,35.9640,-83.9196
34654,New Port Richey,FL,28.2957,-82.6178
35616,Cherokee,AL,34.7485,-87.9986
30750,Lookout Mountain,GA,34.9571,-85.3718
31765,Meigs,GA,31.0821,-84.0577
32208,Jacksonville,FL,30.3929,-81.6793
64141,Kansas City,MO,39.0350,-94.3567
17742,Lairdsville,PA,41.2321,-76.6084
17743,Leroy,PA,41.7720,-76.5213
18851,Warren Center,PA,41.9287,-76.1690
70893,Baton Rouge,LA,30.4130,-91.1715
67553,Liebenthal,KS,38.6549,-99.3206
85743,Tucson,AZ,32.3351,-111.1489
75016,Irving,TX,32.7673,-96.7776
60401,Beecher,IL,41.3505,-87.6241
80432,Como,CO,39.2434,-105.7943
66081,Wolf River,KS,39.7731,-95.2338
80546,Severance,CO,40.5250,-104.8505
55369,Osseo,MN,45.1208,-93.4318
83534,Culdesac,ID,46.3752,-116.6668
55988,Stockton,MN,44.0254,-91.7730
56565,Nashua,MN,46.0403,-96.3177
49246,Horton,MI,42.1180,-84.4934
58040,Gwinner,ND,46.2148,-97.6692
50478,Thompson,IA,43.3854,-93.7773
91319,Newbury Park,CA,34.0324,-119.1343
92503,Riverside,CA,33.9136,-117.4605
94211,Sacramento,CA,38.3774,-121.4444
35772,Stevenson,AL,34.8775,-85.8453
43055,Newark,OH,40.0791,-82.4005
99118,Curlew,WA,48.8909,-118.6448
45159,New Vienna,OH,39.3270,-83.6873
50222,Peru,IA,41.2234,-93.9431
37310,Charleston,TN,35.2758,-84.7693
67208,Wichita,KS,37.7020,-97.2811
54701,Eau Claire,WI,44.7804,-91.4807
68738,Hadar,NE,42.2644,-97.6013
72568,Pleasant Plains,AR,35.5618,-91.6257
69030,Haigler,NE,40.0323,-101.9604
73045,Harrah,OK,35.4912,-97.1613
80922,Colorado Springs,CO,38.8973,-104.7015
58580,Zap,ND,47.2812,-101.9254
74194,Tulsa,OK,36.1398,-96.0297
16030,Eau Claire,PA,41.1353,-79.7979
76385,Vernon,TX,34.1464,-99.2141
18461,Starlight,PA,41.9385,-75.3450
77320,Huntsville,TX,30.8051,-95.5072
10940,Middletown,NY,41.4494,-74.4395
65807,Springfield,MO,37.1684,-93.3130
12930,Dickinson Center,NY,44.7316,-74.5349
58432,Eckelson,ND,46.8925,-98.3755
6804,Brookfield,CT,41.4658,-73.3998
68439,Staplehurst,NE,40.9961,-97.2052
61761,Normal,IL,40.5155,-88.9863
16871,Pottersdale,PA,41.1772,-78.0440
77449,Katy,TX,29.8259,-95.7301
14228,Buffalo,NY,43.0233,-78.7949
59247,Medicine Lake,MT,48.5039,-104.4849
15466,Newell,PA,40.0756,-79.8961
60174,Saint Charles,IL,41.9198,-88.3050
74129,Tulsa,OK,36.1264,-95.8676
83670,Sweet,ID,44.0178,-116.3126
26852,Purgitsville,WV,39.2484,-78.9274
85001,Phoenix,AZ,33.7040,-112.3518
31139,Atlanta,GA,33.8444,-84.4741
91902,Bonita,CA,32.6638,-117.0246
33016,Hialeah,FL,25.8880,-80.3328
98174,Seattle,WA,47.6047,-122.3352
98824,George,WA,47.0792,-119.8601
38146,Memphis,TN,35.2017,-89.9715
95901,Marysville,CA,39.1597,-121.5374
47338,Eaton,IN,40.3398,-85.3496
3801,Portsmouth,NH,43.0702,-70.7768
48930,Lansing,MI,42.7325,-84.5587
6080,Suffield,CT,41.9486,-72.6288
49329,Howard City,MI,43.4057,-85.4774
911,San Juan,PR,18.4501,-66.0577
43569,Weston,OH,41.3492,-83.7895
31044,Jeffersonville,GA,32.6308,-83.3703
8903,New Brunswick,NJ,40.5139,-74.4451
32071,O Brien,FL,30.0391,-82.9448
10706,Hastings On Hudson,NY,40.9921,-73.8729
32763,Orange City,FL,28.9459,-81.3051
28611,Collettsville,NC,36.0094,-81.7314
13851,Vestal,NY,42.2067,-75.7449
13202,Syracuse,NY,43.0451,-76.1499
76651,Italy,TX,32.1758,-96.8802
15060,Midway,PA,40.3682,-80.2924
77353,Magnolia,TX,30.1806,-95.7093
77989,Thomaston,TX,28.9974,-97.1539
15363,Strabane,PA,40.2511,-80.1992
16045,Lyndora,PA,40.8506,-79.9131
16881,Woodland,PA,41.0182,-78.3211
23181,West Point,VA,37.5599,-76.8302
6137,W Hartford,CT,41.7918,-72.7188
25124,Liberty,WV,38.6194,-81.7636
65582,Vienna,MO,38.1751,-91.9466
98145,Seattle,WA,47.4323,-121.8034
66675,Topeka,KS,39.0429,-95.7697
94156,San Francisco,CA,37.7848,-122.7278
86331,Jerome,AZ,34.7443,-112.1459
92616,Irvine,CA,33.6403,-117.7694
87102,Albuquerque,NM,35.0839,-106.6479
74359,Oaks,OK,36.4159,-94.7871
8072,Quinton,NJ,39.5462,-75.4137
72199,North Little Rock,AR,34.8272,-92.2847
24440,Greenville,VA,37.9965,-79.1535
14602,Rochester,NY,43.2860,-77.6843
13217,Syracuse,NY,43.0214,-76.1977
23180,Water View,VA,37.7106,-76.6318
28036,Davidson,NC,35.4908,-80.8258
65236,Brunswick,MO,39.4368,-93.1118
21298,Baltimore,MD,39.2847,-76.6205
67478,Simpson,KS,39.3844,-97.9332
12593,West Copake,NY,42.2440,-73.6411
69023,Champion,NE,40.4891,-101.8835
54568,Woodruff,WI,45.9243,-89.6850
96101,Alturas,CA,41.4394,-120.5877
87543,Llano,NM,36.1298,-105.6649
71468,Provencal,LA,31.4941,-93.1751
98942,Selah,WA,46.7264,-120.5700
79942,El Paso,TX,31.6948,-106.3000
99903,Meyers Chuck,AK,55.7420,-132.2500
75947,Geneva,TX,31.3731,-93.8219
72529,Cherokee Village,AR,36.2947,-91.5578
84722,Central,UT,37.4161,-113.6255
45855,Latty,OH,41.0881,-84.5833
76557,Moody,TX,31.2970,-97.3849
42740,Glendale,KY,37.5964,-85.9229
71306,Alexandria,LA,31.0756,-92.4461
60304,Oak Park,IL,41.8736,-87.7885
63103,Saint Louis,MO,38.6315,-90.2142
62706,Springfield,IL,39.7989,-89.6534
49757,Mackinac Island,MI,45.8568,-84.6264
50579,Rockwell City,IA,42.3959,-94.6329
58203,Grand Forks,ND,47.9389,-97.0840
48465,Palms,MI,43.6189,-82.6874
49283,Spring Arbor,MI,42.2038,-84.5524
26591,Worthington,WV,39.4520,-80.2760
7510,Paterson,NJ,41.0114,-74.3048
19889,Wilmington,DE,39.5645,-75.5970
20254,Washington,DC,38.8933,-77.0146
23630,Hampton,VA,37.0727,-76.3899
22701,Culpeper,VA,38.4595,-77.9988
11050,Port Washington,NY,40.8332,-73.6931
23517,Norfolk,VA,36.8702,-76.2927
27283,Julian,NC,35.9369,-79.6319
6354,Moosup,CT,41.7184,-71.8710
28310,Fort Bragg,NC,35.0506,-78.8038
15834,Emporium,PA,41.5177,-78.2531
28950,Winterville,NC,35.5270,-77.4045
11418,Richmond Hill,NY,40.6985,-73.8337
11746,Huntington Station,NY,40.8217,-73.3755
24432,Deerfield,VA,38.1785,-79.4270
76691,West,TX,31.7830,-97.0795
25817,Bolt,WV,37.7767,-81.4138
78727,Austin,TX,30.4257,-97.7142
1515,East Brookfield,MA,42.2128,-72.0531
53090,West Bend,WI,43.4466,-88.1788
80653,Weldona,CO,40.3659,-104.0061
54441,Hewitt,WI,44.6452,-90.1052
83729,Boise,ID,43.4599,-116.2440
62006,Batchtown,IL,39.0791,-90.6737
66404,Baileyville,KS,39.8918,-96.1734
79831,Alpine,TX,30.3491,-103.6927
71030,Gloster,LA,32.1911,-93.8191
73015,Carnegie,OK,35.1133,-98.5864
57313,Armour,SD,43.3023,-98.3549
5777,West Rutland,VT,43.5743,-73.0422
30633,Danielsville,GA,34.1709,-83.2465
31208,Macon,GA,32.8067,-83.6913
2113,Boston,MA,42.3650,-71.0564
60064,North Chicago,IL,42.3261,-87.8520
23146,Rockville,VA,37.7257,-77.6900
29657,Liberty,SC,34.7795,-82.6886
21688,Ridgely,MD,38.8893,-75.8612
19462,Plymouth Meeting,PA,40.1160,-75.2926
45408,Dayton,OH,39.7416,-84.2236
21523,Bloomington,MD,39.4797,-79.0726
99176,Thornton,WA,47.1180,-117.4105
28557,Morehead City,NC,34.7298,-76.7522
80638,Greeley,CO,40.5009,-104.3150
61840,Dewey,IL,40.3102,-88.3053
47429,Ellettsville,IN,39.2460,-86.6228
48230,Grosse Pointe,MI,42.3861,-82.9243
48231,Detroit,MI,42.2399,-83.1508
48451,Linden,MI,42.8009,-83.8137
49323,Dorr,MI,42.7216,-85.7788
45218,Cincinnati,OH,39.2648,-84.5175
45828,Coldwater,OH,40.4801,-84.6468
46376,Schneider,IN,41.1763,-87.4643
49655,Leroy,MI,44.0237,-85.4488
50843,Cumberland,IA,41.2426,-94.9015
41348,Lost Creek,KY,37.4263,-83.2991
43062,Pataskala,OH,39.9940,-82.6765
43682,Toledo,OH,41.6868,-83.4394
36049,Luverne,AL,31.7374,-86.2695
98206,Everett,WA,47.8599,-122.2848
99146,Laurier,WA,48.9282,-118.2897
99309,Mattawa,WA,46.7310,-119.9019
91802,Alhambra,CA,33.7866,-118.2987
95835,Sacramento,CA,38.6648,-121.5206
5846,Island Pond,VT,44.8030,-71.8468
6608,Bridgeport,CT,41.1887,-73.1813
1856,Lowell,MA,42.6418,-71.3035
99711,Fairbanks,AK,64.8264,-147.3888
31551,Mershon,GA,31.4960,-82.2732
32135,Palm Coast,FL,29.4661,-81.2828
48279,Detroit,MI,42.2399,-83.1508
38923,Coila,MS,33.3682,-89.9978
29805,Aiken,SC,33.6508,-81.6156
30710,Cohutta,GA,34.9351,-84.9464
34426,Pine Ridge,FL,28.9416,-82.5031
35958,Bryant,AL,34.9218,-85.6378
36005,Banks,AL,31.8595,-85.7556
37306,Belvidere,TN,35.1065,-86.2035
37332,Evensville,TN,35.5855,-84.9413
19547,Oley,PA,40.3851,-75.7637
20314,Washington,DC,38.8933,-77.0146
21625,Cordova,MD,38.8829,-75.9884
23351,Exmore,VA,37.5281,-75.8228
24640,Red Ash,VA,37.1355,-81.5634
25248,Kenna,WV,38.6319,-81.6205
41601,Allen,KY,37.6114,-82.7250
42355,Maceo,KY,37.8698,-86.9954
42378,Whitesville,KY,37.6665,-86.8645
43667,Toledo,OH,41.6868,-83.4394
28038,Earl,NC,35.1987,-81.5416
49723,Cross Village,MI,45.6254,-85.0419
58255,Maida,ND,48.9991,-98.3524
45156,Neville,OH,38.8101,-84.2118
45336,Kettlersville,OH,40.4387,-84.2631
47465,Switz City,IN,39.0393,-87.0487
66692,Topeka,KS,39.0429,-95.7697
67479,Smolan,KS,38.7025,-97.6428
67521,Brownell,KS,38.6187,-99.7487
69130,Cozad,NE,40.8687,-99.9770
63931,Briar,MO,36.6610,-90.8508
65080,Tebbetts,MO,38.6345,-91.9766
47711,Evansville,IN,38.0004,-87.5418
47937,Crawfordsville,IN,40.0400,-86.8936
48079,Saint Clair,MI,42.8330,-82.5043
48894,Westphalia,MI,42.9287,-84.7996
55803,Duluth,MN,46.9724,-92.1011
72160,Stuttgart,AR,34.4799,-91.5385
72833,Danville,AR,35.0440,-93.4195
32619,Bell,FL,29.7646,-82.8706
13733,Bainbridge,NY,42.2927,-75.4753
1569,Uxbridge,MA,42.0650,-71.6299
30277,Sharpsburg,GA,33.3875,-84.6551
31032,Gray,GA,33.0035,-83.5508
36071,Rutledge,AL,31.7088,-86.3862
37804,Maryville,TN,35.7816,-83.9359
98105,Seattle,WA,47.6638,-122.3012
98262,Lummi Island,WA,48.6996,-122.6666
98371,Puyallup,WA,47.1963,-122.3158
58579,Wilton,ND,47.1789,-100.7600
79259,Tell,TX,34.3918,-100.4060
90210,Beverly Hills,CA,34.0888,-118.4061
99768,Ruby,AK,64.7373,-155.4877
65570,Success,MO,37.4654,-92.0965
67061,Hazelton,KS,37.0890,-98.3754
68719,Bristow,NE,42.8456,-98.5695
68729,Creighton,NE,42.4691,-97.9023
59713,Avon,MT,46.6502,-112.5908
59823,Bonner,MT,46.9004,-113.6403
62340,Griggsville,IL,39.7135,-90.7205
62341,Hamilton,IL,40.4020,-91.3318
50652,Lincoln,IA,42.2632,-92.6919
51360,Spirit Lake,IA,43.4290,-95.1089
53965,Wisconsin Dells,WI,43.6456,-89.7810
54725,Boyceville,WI,45.0621,-92.0264
57236,Garden City,SD,44.9715,-97.5900
57330,Delmont,SD,43.2613,-98.1616
59058,Mosby,MT,47.0599,-107.8003
62685,Shipman,IL,39.1467,-90.0006
91030,South Pasadena,CA,34.1130,-118.1558
92318,Bryn Mawr,CA,34.0485,-117.2327
92338,Ludlow,CA,34.7203,-116.1982
57312,Alpena,SD,44.1953,-98.3734
59453,Judith Gap,MT,46.6789,-109.6412
73026,Norman,OK,35.2270,-97.2820
73064,Mustang,OK,35.3881,-97.7363
63451,Leonard,MO,39.9227,-92.1952
65702,Macomb,MO,37.0735,-92.4949
54620,Cataract,WI,44.0876,-90.8423
54699,West Salem,WI,43.9004,-91.0718
61730,Cooksville,IL,40.5377,-88.7327
81091,Weston,CO,37.1935,-104.9719
79329,Idalou,TX,33.7018,-101.6909
95939,Elk Creek,CA,39.5354,-122.5767
97452,Lowell,OR,43.8647,-122.7093
97632,Malin,OR,42.0262,-121.4171
98591,Toledo,WA,46.4332,-122.8008
99207,Spokane,WA,47.6937,-117.3883
99349,Mattawa,WA,46.7265,-119.8857
86503,Chinle,AZ,36.1658,-109.6196
87117,Kirtland AFB,NM,35.0567,-106.5720
88103,Cannon AFB,NM,34.4015,-103.3264
88901,The Lakes,NV,36.3225,-114.8197
93646,Orange Cove,CA,36.6237,-119.3089
91001,Altadena,CA,34.1921,-118.1421
29418,North Charleston,SC,32.8795,-80.0591
30114,Canton,GA,34.2285,-84.5040
31316,Ludowici,GA,31.7499,-81.7581
31534,Douglas,GA,31.5716,-82.8546
35036,Brookside,AL,33.6382,-86.9196
40501,Lexington,KY,38.0378,-84.6165
41561,Rockhouse,KY,37.3316,-82.4626
94592,Vallejo,CA,38.1150,-122.2906
94807,Richmond,CA,37.7772,-121.9554
95328,Keyes,CA,37.5596,-120.9141
92192,San Diego,CA,33.0169,-116.8460
92357,Loma Linda,CA,34.8400,-115.9671
90013,Los Angeles,CA,34.0447,-118.2426
98671,Washougal,WA,45.5945,-122.2811
99687,Wasilla,AK,61.3917,-149.9900
56073,New Ulm,MN,44.3084,-94.4615
56308,Alexandria,MN,45.8865,-95.3829
57258,Raymond,SD,44.8899,-97.9238
41640,Hueysville,KY,37.4939,-82.9419
42063,Lynnville,KY,36.7239,-88.6520
33296,Miami,FL,25.5584,-80.4582
34609,Brooksville,FL,28.4757,-82.5020
35091,Kimberly,AL,33.7711,-86.8067
51240,Inwood,IA,43.3096,-96.4582
51559,Neola,IA,41.4551,-95.6479
53811,Hazel Green,WI,42.5326,-90.5000
49676,Rapid City,MI,44.8291,-85.2796
31131,Atlanta,GA,33.8444,-84.4741
37924,Knoxville,TN,36.0300,-83.8071
39439,Heidelberg,MS,31.8688,-89.0032
39767,Stewart,MS,33.4636,-89.4671
80420,Alma,CO,39.2939,-106.0689
62459,Sainte Marie,IL,38.9315,-88.0252
72550,Locust Grove,AR,35.7106,-91.7639
72947,Mulberry,AR,35.5289,-94.0523
68316,Benedict,NE,41.0145,-97.6097
70062,Kenner,LA,29.9911,-90.2469
18058,Kunkletown,PA,40.9124,-75.4977
18076,Red Hill,PA,40.3752,-75.4843
18922,Forest Grove,PA,40.3286,-75.1028
20686,Saint Marys City,MD,38.1888,-76.4207
2359,Pembroke,MA,42.0656,-70.8043
2663,South Wellfleet,MA,41.8005,-70.0768
3468,West Peterborough,NH,42.8908,-71.9334
4065,Ellsworth,ME,44.5410,-68.4233
5463,Isle La Motte,VT,44.8663,-73.3308
8808,Broadway,NJ,40.7372,-75.0469
16918,Cowanesque,PA,41.9367,-77.4984
44401,Berlin Center,OH,41.0311,-80.9506
40447,McKee,KY,37.4570,-84.0344
49711,Bay Shore,MI,45.5234,-85.3320
52746,Donahue,IA,41.7126,-90.6875
52805,Davenport,IA,41.6130,-90.6063
53208,Milwaukee,WI,43.0479,-87.9662
67515,Arnold,KS,38.6745,-100.0553
69148,Lisco,NE,41.5212,-102.5597
63042,Hazelwood,MO,38.7785,-90.3701
63663,Pilot Knob,MO,37.6246,-90.6453
57477,Turton,SD,45.0322,-98.1436
58775,Roseglen,ND,47.7101,-101.8441
48041,Memphis,MI,42.9328,-82.8035
48151,Livonia,MI,42.2399,-83.1508
48857,Morrice,MI,42.8457,-84.1658
75839,Elkhart,TX,31.6276,-95.5323
43914,Cameron,OH,39.7681,-80.9446
44139,Solon,OH,41.3884,-81.4437
45332,Hollansburg,OH,39.9989,-84.7917
56003,Mankato,MN,44.1849,-94.0424
52533,Batavia,IA,41.0255,-92.1596
55557,Young America,MN,44.8055,-93.7665
55956,Mazeppa,MN,44.2724,-92.5350
38803,Tupelo,MS,34.1876,-88.7785
30312,Atlanta,GA,33.7457,-84.3764
32353,Quincy,FL,30.5497,-84.6069
32807,Orlando,FL,28.5469,-81.3077
32887,Orlando,FL,28.5663,-81.2608
46913,Bringhurst,IN,40.5071,-86.5013
46971,Grissom AFB,IN,40.7810,-86.0164
33950,Punta Gorda,FL,26.9144,-82.0411
35046,Clanton,AL,32.8944,-86.5650
43460,Rossford,OH,41.6038,-83.5619
47975,Pine Village,IN,40.4487,-87.2557
48268,Detroit,MI,42.2399,-83.1508
28762,Old Fort,NC,35.6254,-82.1823
15043,Georgetown,PA,40.5823,-80.5018
15148,Wilmerding,PA,40.3943,-79.8029
17058,Mifflin,PA,40.5353,-77.4646
3820,Dover,NH,43.1910,-70.8879
4097,North Yarmouth,ME,43.8428,-70.2299
5070,South Strafford,VT,43.8304,-72.3623
25268,Orma,WV,38.7380,-81.0948
26205,Craigsville,WV,38.3308,-80.6480
26224,Helvetia,WV,38.7354,-80.1803
19966,Millsboro,DE,38.6014,-75.2411
20726,Laurel,MD,38.8336,-76.8777
22547,Sealston,VA,38.2711,-77.1726
17580,Talmage,PA,40.1168,-76.2131
18470,Union Dale,PA,41.7229,-75.5417
19350,Landenberg,PA,39.7682,-75.7876
1529,Millville,MA,42.0364,-71.5780
2136,Hyde Park,MA,42.2522,-71.1259
27582,Stovall,NC,36.4548,-78.5702
61880,Tolono,IL,39.9819,-88.2532
32908,Palm Bay,FL,27.9590,-80.6859
34146,Marco Island,FL,26.1433,-81.3891
35806,Huntsville,AL,34.7481,-86.6832
40826,Eolia,KY,37.0482,-82.8178
47245,Hayden,IN,39.0013,-85.6199
12737,Glen Spey,NY,41.4840,-74.8119
51637,College Springs,IA,40.6167,-95.1157
52572,Moulton,IA,40.6793,-92.6837
30141,Hiram,GA,33.8676,-84.7710
27342,Sedalia,NC,36.0760,-79.6313
27812,Bethel,NC,35.7998,-77.3777
30814,Harlem,GA,33.4236,-82.3101
31057,Marshallville,GA,32.4467,-83.9341
31795,Ty Ty,GA,31.4739,-83.6648
32177,Palatka,FL,29.6662,-81.6740
23126,Newtown,VA,37.9030,-77.1459
11756,Levittown,NY,40.7249,-73.5174
11792,Wading River,NY,40.9533,-72.8368
20215,Washington,DC,38.8933,-77.0146
20422,Washington,DC,38.8933,-77.0146
25122,Leewood,WV,38.2968,-81.5547
91340,San Fernando,CA,34.2849,-118.4382
91377,Oak Park,CA,34.1829,-118.7689
92096,San Marcos,CA,33.0169,-116.8460
92801,Anaheim,CA,33.8448,-117.9538
93776,Fresno,CA,36.7464,-119.6397
83404,Idaho Falls,ID,43.4660,-112.0143
84079,Vernal,UT,40.1602,-109.5478
85628,Nogales,AZ,31.5320,-110.9093
97352,Jefferson,OR,44.7360,-123.0255
97281,Portland,OR,45.5486,-123.1147
6749,Waterbury,CT,41.3657,-72.9275
7847,Kenvil,NJ,40.8804,-74.6201
3062,Nashua,NH,42.7248,-71.4924
5828,Danville,VT,44.4240,-72.1281
27565,Oxford,NC,36.3405,-78.6160
33168,Miami,FL,25.8922,-80.2103
36738,Faunsdale,AL,32.4179,-87.6273
30458,Statesboro,GA,32.4231,-81.8068
32179,Ocklawaha,FL,29.0719,-81.8907
21528,Eckhart Mines,MD,39.6522,-78.9012
21658,Queenstown,MD,38.9636,-76.1394
24361,Meadowview,VA,36.7631,-81.8477
79093,Waka,TX,36.2801,-101.0467
80831,Peyton,CO,38.9663,-104.5431
81071,Sheridan Lake,CO,38.4467,-102.2484
71701,Camden,AR,33.5781,-92.8137
73136,Oklahoma City,OK,35.6153,-97.3262
87945,Williamsburg,NM,33.1163,-107.2875
98282,Camano,WA,48.1855,-122.4821
91394,Granada Hills,CA,33.7866,-118.2987
91798,Ontario,CA,34.8400,-115.9671
74183,Tulsa,OK,36.1398,-96.0297
76137,Fort Worth,TX,32.8681,-97.2857
40353,Mount Sterling,KY,38.0612,-83.9296
41137,Firebrick,KY,38.6881,-83.0484
41833,Linefork,KY,37.0214,-82.9816
41844,Pippa Passes,KY,37.3346,-82.8755
61428,Dahinda,IL,40.9527,-90.1214
61650,Peoria,IL,40.7442,-89.7184
62348,Lima,IL,40.1802,-91.3779
63124,Saint Louis,MO,38.6458,-90.3769
47038,Patriot,IN,38.8557,-84.8386
47881,Staunton,IN,39.4871,-87.1894
61077,Seward,IL,42.2368,-89.3583
61109,Rockford,IL,42.2134,-89.0560
61760,Minonk,IL,40.8936,-89.0327
56724,Gatzke,MN,48.4460,-95.7415
57079,Yankton,SD,42.8676,-97.3903
58249,Langdon,ND,48.8119,-98.3103
59012,Birney,MT,45.3512,-106.5886
73160,Oklahoma City,OK,35.3438,-97.4860
73526,Blair,OK,34.7761,-99.3084
70550,Lawtell,LA,30.5177,-92.1835
78467,Corpus Christi,TX,27.7770,-97.4632
78540,Edinburg,TX,26.3194,-98.1909
78594,Sebastian,TX,26.3448,-97.8003
78762,Austin,TX,30.3264,-97.7713
79906,El Paso,TX,31.8093,-106.4308
2651,North Eastham,MA,41.8243,-69.9818
95492,Windsor,CA,38.5449,-122.8079
95540,Fortuna,CA,40.5835,-124.1437
91308,West Hills,CA,33.7866,-118.2987
52638,Middletown,IA,40.8280,-91.2550
56452,Hackensack,MN,46.9634,-94.4646
44107,Lakewood,OH,41.4809,-81.8004
45069,West Chester,OH,39.3438,-84.4025
40296,Louisville,KY,38.1890,-85.6768
31299,Macon,GA,32.8067,-83.6913
32402,Panama City,FL,30.2345,-85.6920
35407,Tuscaloosa,AL,33.3066,-87.4532
47167,Salem,IN,38.6050,-86.0893
47735,Evansville,IN,37.9971,-87.5750
48051,New Baltimore,MI,42.6821,-82.8307
36570,Salitpa,AL,31.6137,-88.0138
37773,Lone Mountain,TN,36.4664,-83.6786
37830,Oak Ridge,TN,35.9927,-84.2704
15690,Vandergrift,PA,40.6126,-79.5671
5482,Shelburne,VT,44.3886,-73.2232
29584,Patrick,SC,34.5852,-80.0611
29875,Murrells Inlet,SC,33.5502,-79.0538
10650,White Plains,NY,41.0137,-73.7060
12967,North Lawrence,NY,44.7841,-74.6621
13026,Aurora,NY,42.7581,-76.6700
20886,Montgomery Village,MD,39.1787,-77.1956
26823,Capon Springs,WV,39.1398,-78.4958
14168,Versailles,NY,42.5093,-78.9995
15017,Bridgeville,PA,40.3518,-80.1153
95954,Magalia,CA,39.8881,-121.5905
92249,Heber,CA,32.7269,-115.5125
93445,Oceano,CA,35.0976,-120.6133
2898,Wyoming,RI,41.5150,-71.6848
960,Bayamon,PR,18.3449,-66.1660
61616,Peoria,IL,40.7433,-89.5766
63133,Saint Louis,MO,38.6797,-90.3019
78147,Poth,TX,29.0724,-98.0779
79763,Odessa,TX,31.8173,-102.4232
70159,New Orleans,LA,30.0330,-89.8826
71070,Saline,LA,32.1224,-92.9841
71266,Pioneer,LA,32.7142,-91.4578
84322,Logan,UT,41.6412,-111.8966
59484,Sweet Grass,MT,48.9799,-111.9247
67630,Belleville,KS,37.0973,-96.1002
67733,Edson,KS,39.3561,-101.5123
68349,Elmwood,NE,40.8372,-96.2954
68742,Inman,NE,42.3764,-98.5185
73726,Carmen,OK,36.5805,-98.4757
76304,Wichita Falls,TX,33.9310,-98.4991
76573,Schwertner,TX,30.8055,-97.4705
95159,San Jose,CA,37.1894,-121.7053
54985,Winnebago,WI,44.0751,-88.5176
38451,Culleoka,TN,35.4740,-86.9899
40360,Owingsville,KY,38.1523,-83.7660
45687,Wakefield,OH,39.0728,-83.0858
59921,Lake McDonald,MT,48.6055,-113.8851
60045,Lake Forest,IL,42.2381,-87.8609
61462,Monmouth,IL,40.9188,-90.6447
62017,Coffeen,IL,39.0819,-89.3779
57315,Avon,SD,43.0065,-98.0459
58222,Crystal,ND,48.6229,-97.6786
49947,Marenisco,MI,46.4202,-89.6652
50274,Wiota,IA,41.3946,-94.8628
50543,Gowrie,IA,42.2695,-94.2954
36103,Montgomery,AL,32.3462,-86.2873
41017,Ft Mitchell,KY,39.0364,-84.5680
41093,Wallingford,KY,38.3711,-83.5710
42069,Melber,KY,36.9215,-88.7587
43001,Alexandria,OH,40.0916,-82.6123
48913,Lansing,MI,42.5992,-84.3720
44490,Washingtonville,OH,40.8997,-80.7633
44890,Willard,OH,41.0737,-82.7244
45727,Dexter City,OH,39.6499,-81.4711
45891,Van Wert,OH,40.8741,-84.5787
50647,Janesville,IA,42.6461,-92.4730
39352,Porterville,MS,32.6789,-88.4995
15380,Wind Ridge,PA,39.8750,-80.4685
31498,Savannah,GA,31.9714,-81.0716
33544,Zephyrhills,FL,28.2666,-82.3422
33820,Alturas,FL,28.0026,-81.6186
23631,Hampton,VA,37.0727,-76.3899
25667,Chattaroy,WV,37.7038,-82.2782
26136,Big Bend,WV,38.9778,-81.1392
8346,Newtonville,NJ,39.5627,-74.8585
10910,Arden,NY,41.3862,-74.1257
28577,Sealevel,NC,34.8690,-76.3815
26582,Mannington,WV,39.5278,-80.3586
27350,Sophia,NC,35.8084,-79.9024
28331,Cumberland,NC,35.1509,-78.9158
35089,Kellyton,AL,32.9417,-86.0610
37245,Nashville,TN,36.1866,-86.7852
958,Bayamon,PR,18.3449,-66.1660
1302,Greenfield,MA,42.5222,-72.6242
1750,Natick,MA,42.2738,-71.3782
2059,North Marshfield,MA,41.9705,-70.7014
6147,Hartford,CT,41.7918,-72.7188
7650,Palisades Park,NJ,40.8457,-73.9948
1242,Lenox Dale,MA,42.3366,-73.2460
13649,Helena,NY,44.9217,-74.7068
16259,Templeton,PA,40.9076,-79.4516
32858,Orlando,FL,28.5663,-81.2608
33044,Sugarloaf Shores,FL,24.6646,-81.5653
17573,Ronks,PA,40.0185,-76.2976
25676,Lenore,WV,37.8188,-82.2727
19183,Philadelphia,PA,40.0018,-75.1179
8734,Lanoka Harbor,NJ,39.8629,-74.1662
20688,Solomons,MD,38.3392,-76.4657
92585,Sun City,CA,33.7429,-117.1743
87070,Clines Corners,NM,35.0099,-105.9720
88332,La Luz,NM,32.9801,-105.9388
89027,Mesquite,NV,36.8047,-114.0875
99709,Fairbanks,AK,64.8549,-147.8741
44822,Butler,OH,40.5614,-82.4124
46394,Whiting,IN,41.6792,-87.5002
46825,Fort Wayne,IN,41.1507,-85.1218
36641,Mobile,AL,30.6589,-88.1780
31555,Odum,GA,31.6705,-82.0494
32810,Orlando,FL,28.6194,-81.4270
18848,Towanda,PA,41.7625,-76.4530
18918,Earlington,PA,40.3200,-75.3742
56397,Saint Cloud,MN,45.5289,-94.5933
72110,Morrilton,AR,35.1565,-92.7586
73080,Purcell,OK,35.0177,-97.3965
73626,Canute,OK,35.3940,-99.2800
73858,Shattuck,OK,36.2264,-99.8903
50594,Vincent,IA,42.5877,-94.0250
44064,Montville,OH,41.6139,-81.0552
44855,North Fairfield,OH,41.1002,-82.6089
45658,Patriot,OH,38.7661,-82.4164
45897,Williamstown,OH,40.8342,-83.6529
46725,Columbia City,IN,41.1660,-85.4831
54140,Little Chute,WI,44.2866,-88.3100
35242,Birmingham,AL,33.4096,-86.6968
36039,Hardaway,AL,32.2803,-85.8198
36473,Range,AL,31.3068,-87.2033
58461,Litchville,ND,46.6546,-98.2002
59223,Fort Peck,MT,48.0067,-106.4610
59241,Hinsdale,MT,48.3996,-107.0977
39631,Centreville,MS,31.0782,-91.0772
40452,Mitchellsburg,KY,37.6033,-84.9492
55114,Saint Paul,MN,44.9648,-93.1958
28617,Crumpler,NC,36.4884,-81.3922
29218,Columbia,SC,34.0060,-80.9708
31700,Albany,GA,31.5643,-84.1654
14006,Angola,NY,42.6334,-79.0457
15104,Braddock,PA,40.4047,-79.8644
16630,Cresson,PA,40.4648,-78.5885
32506,Pensacola,FL,30.4088,-87.3192
33148,Miami,FL,25.5584,-80.4582
33757,Clearwater,FL,27.8918,-82.7248
28286,Charlotte,NC,35.2600,-80.8042
22901,Charlottesville,VA,38.0724,-78.5015
25362,Charleston,WV,38.2968,-81.5547
25519,Glenhayes,WV,38.1321,-82.4183
5746,Gaysville,VT,43.7854,-72.7137
7109,Belleville,NJ,40.7935,-74.1614
822,Christiansted,VI,17.7342,-64.7347
55065,Randolph,MN,44.5349,-93.0296
55327,Dayton,MN,45.2171,-93.4761
45353,Pemberton,OH,40.2940,-84.0327
13812,Nichols,NY,42.0242,-76.3656
15339,Hendersonville,PA,40.3018,-80.1543
16334,Marble,PA,41.3163,-79.4416
16428,North East,PA,42.1955,-79.8330
31072,Pitts,GA,31.9518,-83.5675
32091,Starke,FL,29.9375,-82.1171
20599,Washington,DC,38.8933,-77.0146
21705,Frederick,MD,39.4700,-77.3921
23120,Moseley,VA,37.4229,-77.7813
23250,Richmond,VA,37.5075,-77.3329
25517,Genoa,WV,38.1166,-82.4624
29360,Laurens,SC,34.5032,-82.0227
17518,Drumore,PA,39.8113,-76.2535
18032,Catasauqua,PA,40.6571,-75.4712
27615,Raleigh,NC,35.8917,-78.6320
28174,Wingate,NC,34.9816,-80.4431
12050,Columbiaville,NY,42.3172,-73.7486
12252,Albany,NY,42.6149,-73.9708
5863,Saint Johnsbury Center,VT,44.5034,-71.9721
8010,Beverly,NJ,40.0582,-74.9140
47471,Worthington,IN,39.1239,-86.9845
48176,Saline,MI,42.1649,-83.7839
40201,Louisville,KY,38.1890,-85.6768
41465,Salyersville,KY,37.7368,-83.0865
41567,Stone,KY,37.5609,-82.2880
42633,Monticello,KY,36.8019,-84.8284
43624,Toledo,OH,41.6571,-83.5453
43724,Caldwell,OH,39.7416,-81.5251
45155,Mowrystown,OH,39.0381,-83.7494
36456,McKenzie,AL,31.5467,-86.7736
36630,Mobile,AL,30.6589,-88.1780
37765,Kyles Ford,TN,36.5728,-83.0503
88441,Bell Ranch,NM,35.4563,-104.6796
92066,Ranchita,CA,33.2093,-116.5424
92418,San Bernardino,CA,34.8400,-115.9671
92571,Perris,CA,33.8221,-117.2151
53698,Union Center,WI,43.6805,-90.2695
61441,Ipava,IL,40.3376,-90.3046
62242,Evansville,IL,38.0926,-89.9349
66072,Parker,KS,38.3285,-94.9825
66757,Neodesha,KS,37.4200,-95.6830
68823,Burwell,NE,41.8206,-99.1253
76258,Pilot Point,TX,33.3856,-96.9521
76639,Dawson,TX,31.8813,-96.7016
77034,Houston,TX,29.6364,-95.2179
77872,North Zulch,TX,30.8922,-96.1035
56465,Merrifield,MN,46.5277,-94.1107
56541,Flom,MN,47.3251,-96.4692
71822,Ashdown,AR,33.6756,-94.1347
99576,Dillingham,AK,59.0687,-158.4441
97306,Salem,OR,44.8584,-123.0537
80520,Firestone,CO,40.1155,-104.9364
80732,Hereford,CO,40.9751,-104.3053
28642,Jonesville,NC,36.2276,-80.8299
28687,Statesville,NC,35.5298,-80.9470
29171,West Columbia,SC,33.9252,-81.2483
39213,Jackson,MS,32.3565,-90.2106
39520,Bay Saint Louis,MS,30.3043,-89.4071
40294,Louisville,KY,38.1890,-85.6768
44181,Cleveland,OH,41.6857,-81.6728
45232,Cincinnati,OH,39.1734,-84.5130
46055,McCordsville,IN,39.8984,-85.9159
46714,Bluffton,IN,40.7288,-85.1657
32536,Crestview,FL,30.7602,-86.5853
33631,Tampa,FL,27.8720,-82.4388
34797,Yalaha,FL,28.7442,-81.8186
34945,Fort Pierce,FL,27.4316,-80.4915
81332,Rico,CO,37.7132,-108.0259
97390,Tidewater,OR,44.3099,-123.8334
1841,Lawrence,MA,42.7116,-71.1667
2062,Norwood,MA,42.1860,-71.2017
2364,Kingston,MA,41.9931,-70.7383
38926,Elliott,MS,33.6895,-89.7583
40873,Wallins Creek,KY,36.8233,-83.4106
56751,Roseau,MN,48.8179,-95.7517
58763,New Town,ND,47.9830,-102.5413
59006,Ballantine,MT,45.9472,-108.0969
59424,Coffee Creek,MT,47.3833,-110.0206
53097,Mequon,WI,43.2345,-88.0091
44413,East Palestine,OH,40.8385,-80.5460
44842,Loudonville,OH,40.6398,-82.2246
47030,Metamora,IN,39.4288,-85.1314
51636,Coin,IA,40.6712,-95.2170
42755,Leitchfield,KY,37.4719,-86.3439
43084,Woodstock,OH,40.1460,-83.5249
61279,Reynolds,IL,41.3165,-90.7067
63030,Fletcher,MO,38.1292,-90.7434
63180,Saint Louis,MO,38.6531,-90.2435
63703,Cape Girardeau,MO,37.2914,-89.5407
64443,Easton,MO,39.7424,-94.6525
48086,Southfield,MI,42.6601,-83.3863
30439,Metter,GA,32.4144,-82.0553
32181,Pomona Park,FL,29.4886,-81.6088
32956,Rockledge,FL,28.3298,-80.7323
33831,Bartow,FL,27.9554,-81.9517
20091,Washington,DC,38.8933,-77.0146
21117,Owings Mills,MD,39.4191,-76.7839
21297,Baltimore,MD,39.2847,-76.6205
24015,Roanoke,VA,37.2588,-79.9782
14572,Wayland,NY,42.5699,-77.5764
16666,Osceola Mills,PA,40.8526,-78.2834
17018,Dauphin,PA,40.3856,-76.9233
17249,Rockhill Furnace,PA,40.2429,-77.9004
12239,Albany,NY,42.6149,-73.9708
12734,Ferndale,NY,41.7349,-74.7501
13143,Red Creek,NY,43.2359,-76.7155
14273,Buffalo,NY,42.7550,-78.7849
24827,Cyclone,WV,37.7430,-81.6795
25779,Huntington,WV,38.4134,-82.2774
26070,Wellsburg,WV,40.2667,-80.5971
35176,Vandiver,AL,33.4776,-86.5126
35206,Birmingham,AL,33.5686,-86.7216
36108,Montgomery,AL,32.3532,-86.3604
18656,Sweet Valley,PA,41.3106,-76.1932
19484,Valley Forge,PA,40.2119,-75.3559
27375,Wentworth,NC,36.3921,-79.7731
27870,Roanoke Rapids,NC,36.4486,-77.6714
29210,Columbia,SC,34.0416,-81.1062
95487,Vineburg,CA,38.4631,-122.9900
95950,Grimes,CA,39.0701,-121.8981
94029,Menlo Park,CA,37.3811,-122.3348
16820,Aaronsburg,PA,40.9090,-77.4242
18701,Wilkes Barre,PA,41.2432,-75.8844
33938,Murdock,FL,26.9020,-82.0000
25093,Gordon,WV,37.9971,-81.7170
28344,Godwin,NC,35.1711,-78.6365
6443,Madison,CT,41.2986,-72.6094
6531,New Haven,CT,41.3657,-72.9275
8544,Princeton,NJ,40.3492,-74.6528
12883,Ticonderoga,NY,43.8582,-73.4541
13354,Holland Patent,NY,43.2615,-75.2571
1913,Amesbury,MA,42.8544,-70.9355
70647,Iowa,LA,30.2432,-93.0039
71350,Mansura,LA,31.0674,-92.0545
48044,Macomb,MI,42.6503,-82.9342
48227,Detroit,MI,42.3888,-83.1918
49822,Deerton,MI,46.4710,-87.0684
78620,Dripping Springs,TX,30.2411,-98.1075
79078,Sanford,TX,35.7118,-101.5472
88054,Radium Springs,NM,32.4888,-106.9146
88426,Logan,NM,35.3485,-103.3905
94303,Palo Alto,CA,37.4499,-122.1275
97041,Mount Hood Parkdale,OR,45.5032,-121.5925
75564,Lodi,TX,32.8802,-94.2773
78021,Fowlerton,TX,28.5286,-98.8085
67905,Liberal,KS,37.0216,-100.9380
68350,Endicott,NE,40.0617,-97.0763
45845,Fort Loramie,OH,40.3386,-84.3835
12863,Rock City Falls,NY,43.0675,-73.9300
46411,Merrillville,IN,41.4615,-87.3728
31836,Woodland,GA,32.7975,-84.5410
27043,Pinnacle,NC,36.3315,-80.4417
32502,Pensacola,FL,30.4743,-87.2257
20436,Washington,DC,38.8959,-77.0211
80826,Limon,CO,39.0414,-103.6049
81630,De Beque,CO,39.3788,-108.3407
84701,Richfield,UT,38.7659,-112.0840
64108,Kansas City,MO,39.0846,-94.5830
72115,North Little Rock,AR,34.7519,-92.3925
72203,Little Rock,AR,34.8835,-92.3908
74845,Hanna,OK,35.2037,-95.9082
76345,Fort Worth,TX,32.3825,-98.4048
78002,Atascosa,TX,29.2881,-98.7288
66901,Concordia,KS,39.5688,-97.6463
67101,Maize,KS,37.7756,-97.4680
70748,Jackson,LA,30.8263,-91.2281
70837,Baton Rouge,LA,30.5159,-91.0804
71079,Summerfield,LA,32.9377,-92.8047
98383,Silverdale,WA,47.6673,-122.6906
95982,Sutter,CA,39.1686,-121.7647
93710,Fresno,CA,36.8256,-119.7636
61017,Coleta,IL,41.9030,-89.8043
61241,Colona,IL,41.4835,-90.3405
61270,Morrison,IL,41.8190,-89.9662
61354,Peru,IL,41.3308,-89.1299
68722,Butte,NE,42.9231,-98.8592
79567,Winters,TX,31.9657,-99.9347
65764,Tunas,MO,37.8272,-92.9842
67840,Englewood,KS,37.0407,-99.9890
56174,Storden,MN,44.0314,-95.3067
56260,Maynard,MN,44.9439,-95.4803
62846,Ina,IL,38.1495,-88.8963
62870,Odin,IL,38.6141,-89.0474
63047,Hematite,MO,38.1941,-90.4725
72451,Paragould,AR,36.1164,-90.5251
73639,Custer City,OK,35.7036,-98.9335
75149,Mesquite,TX,32.7673,-96.6076
75185,Mesquite,TX,32.7403,-96.5618
83848,Nordman,ID,48.6490,-116.8943
90011,Los Angeles,CA,34.0071,-118.2587
92002,Carlsbad,CA,33.1980,-117.2347
92841,Garden Grove,CA,33.7869,-117.9822
93711,Fresno,CA,36.8317,-119.8320
98073,Redmond,WA,47.4323,-121.8034
95741,Rancho Cordova,CA,38.3774,-121.4444
95922,Camptonville,CA,39.4699,-121.0732
97238,Portland,OR,45.5806,-122.3748
4217,Bethel,ME,44.3721,-70.8175
4613,Birch Harbor,ME,44.3789,-68.0292
6750,Bantam,CT,41.7210,-73.2477
1081,Wales,MA,42.0580,-72.2252
52573,Mount Sterling,IA,40.6205,-91.9335
42558,Tateville,KY,36.9492,-84.5815
47011,Bennington,IN,38.8488,-85.0726
2830,Harrisville,RI,41.9767,-71.6497
4353,Whitefield,ME,44.2099,-69.6043
5158,Westminster,VT,43.0937,-72.4505
5651,East Montpelier,VT,44.2823,-72.4898
6372,Old Mystic,CT,41.3882,-71.9495
14781,Sherman,NY,42.1610,-79.5974
15467,New Geneva,PA,39.9321,-79.6522
15666,Mount Pleasant,PA,40.1501,-79.5249
88221,Carlsbad,NM,32.3420,-104.2937
89440,Virginia City,NV,39.2982,-119.6535
91017,Monrovia,CA,33.7866,-118.2987
92170,San Diego,CA,33.0169,-116.8460
92604,Irvine,CA,33.6876,-117.7885
93102,Santa Barbara,CA,34.2628,-119.8486
79948,El Paso,TX,31.6948,-106.3000
73028,Crescent,OK,35.9638,-97.6307
95405,Santa Rosa,CA,38.4382,-122.6742
96847,Honolulu,HI,24.8598,-168.0218
97215,Portland,OR,45.5142,-122.6009
65468,Eunice,MO,37.2601,-91.7913
28672,Scottville,NC,36.4142,-81.4930
29568,Longs,SC,33.9157,-78.7480
30448,Nunez,GA,32.4913,-82.3679
30833,Wrens,GA,33.2003,-82.3763
12748,Jeffersonville,NY,41.7742,-74.9221
63674,Tiff,MO,38.0387,-90.6562
49852,Loretto,MI,45.7812,-87.8176
50131,Johnston,IA,41.6748,-93.7187
50268,What Cheer,IA,41.4038,-92.3541
56142,Ivanhoe,MN,44.4770,-96.2300
47737,Evansville,IN,37.9971,-87.5750
51463,Templeton,IA,41.9100,-94.9278
52332,Shellsburg,IA,42.0931,-91.8838
52651,Stockport,IA,40.8766,-91.8124
55588,Monticello,MN,44.9895,-93.8802
48866,Ovid,MI,42.9976,-84.3764
49233,Cement City,MI,42.0712,-84.3494
57479,Warner,SD,45.3219,-98.4643
58109,Fargo,ND,46.8235,-96.8148
58380,Tolna,ND,47.8362,-98.5150
72613,Beaver,AR,36.4311,-93.6994
72851,New Blaine,AR,35.2892,-93.4432
49774,Pickford,MI,46.1651,-84.3322
49813,Cedar River,MI,45.4353,-87.3768
50237,Runnells,IA,41.5362,-93.3818
51239,Hull,IA,43.1923,-96.1501
70421,Akers,LA,30.6124,-90.4053
71601,Pine Bluff,AR,34.2156,-91.9884
31020,Dry Branch,GA,32.7199,-83.4905
38555,Crossville,TN,35.9293,-85.0593
47345,Greens Fork,IN,39.8837,-85.0462
34689,Tarpon Springs,FL,28.1497,-82.7534
35406,Tuscaloosa,AL,33.2716,-87.5061
35621,Eva,AL,34.3350,-86.7185
27599,Chapel Hill,NC,36.0525,-79.1077
41234,Meally,KY,37.7954,-82.7337
41421,Elkfork,KY,37.9977,-83.1610
24280,Rosedale,VA,36.9549,-81.9425
25916,Sabine,WV,37.6776,-81.5007
25011,Bancroft,WV,38.5087,-81.8413
50143,Leighton,IA,41.3242,-92.8063
52140,Dorchester,IA,43.4422,-91.5334
52534,Beacon,IA,41.2736,-92.6808
72153,Shirley,AR,35.6195,-92.3259
72429,Fisher,AR,35.4929,-90.9587
74963,Watson,OK,34.3777,-94.5528
75119,Ennis,TX,32.3312,-96.6196
11743,Huntington,NY,40.8675,-73.4115
12801,Glens Falls,NY,43.3121,-73.6483
13610,Rodman,NY,43.8187,-75.4803
20106,Amissville,VA,38.6831,-77.9903
22307,Alexandria,VA,38.7749,-77.0593
23692,Yorktown,VA,37.1784,-76.4675
4961,North New Portland,ME,45.0563,-70.0865
6061,Pine Meadow,CT,41.8744,-72.9680
6840,New Canaan,CT,41.1501,-73.4918
7605,Leonia,NJ,40.8627,-73.9855
16133,Jackson Center,PA,41.2744,-80.1241
11944,Greenport,NY,41.1038,-72.3673
12701,Monticello,NY,41.6531,-74.6975
10992,Washingtonville,NY,41.4283,-74.1618
18710,Wilkes Barre,PA,41.2722,-75.8801
81058,Manzanola,CO,38.1076,-103.8685
81210,Almont,CO,38.7787,-106.6283
84774,Toquerville,UT,37.2507,-113.2749
86337,Seligman,AZ,35.3344,-113.0577
87121,Albuquerque,NM,35.0512,-106.7426
87820,Aragon,NM,33.8714,-108.5755
93930,King City,CA,36.2111,-121.0599
94597,Walnut Creek,CA,37.7772,-121.9554
94975,Petaluma,CA,38.4631,-122.9900
95585,Leggett,CA,39.8603,-123.7169
97207,Portland,OR,45.4803,-122.7111
53919,Brandon,WI,43.7346,-88.7859
53958,Reedsburg,WI,43.3938,-89.9559
14113,North Java,NY,42.6722,-78.3375
14771,Canadice,NY,42.7372,-77.5198
14788,Westons Mills,NY,42.0621,-78.3780
6282,Woodstock Valley,CT,41.9432,-72.0728
6519,New Haven,CT,41.2952,-72.9367
19043,Holmes,PA,39.8998,-75.3089
19903,Dover,DE,39.1087,-75.4480
20816,Bethesda,MD,38.9584,-77.1143
2341,Hanson,MA,42.0594,-70.8621
17263,State Line,PA,39.7248,-77.7186
10964,Palisades,NY,41.0115,-73.9259
23308,Bloxom,VA,37.8285,-75.6190
721,Palmer,PR,18.3642,-65.7783
970,Guaynabo,PR,18.3591,-66.1123
12740,Grahamsville,NY,41.8530,-74.5292
12779,South Fallsburg,NY,41.7056,-74.6299
26542,Masontown,WV,39.5610,-79.7953
28081,Kannapolis,NC,35.4995,-80.6445
11043,New Hyde Park,NY,40.7548,-73.6018
47935,Crawfordsville,IN,40.0400,-86.8936
43344,Richwood,OH,40.4308,-83.3210
37155,Saint Bethlehem,TN,36.4774,-87.3772
38583,Sparta,TN,35.9430,-85.4511
57340,Fulton,SD,43.7727,-97.8416
44118,Cleveland,OH,41.4992,-81.5543
44901,Mansfield,OH,40.8508,-82.5114
45330,Gratis,OH,39.6475,-84.5275
34481,Ocala,FL,29.1246,-82.3227
35893,Huntsville,AL,34.7340,-86.5229
50271,Williams,IA,42.4863,-93.5464
51015,Climbing Hill,IA,42.3450,-96.0875
39335,Lauderdale,MS,32.5171,-88.5180
47308,Muncie,IN,40.2279,-85.3967
45111,Camp Dennison,OH,39.1955,-84.2909
45326,Fletcher,OH,40.1441,-84.1043
54842,Hawthorne,WI,46.5132,-91.8482
54979,Van Dyne,WI,43.8771,-88.5257
66048,Leavenworth,KS,39.2988,-94.9356
59724,Dell,MT,45.1498,-112.7007
47868,Poland,IN,39.4145,-86.9020
48332,Farmington,MI,42.6601,-83.3863
48529,Burton,MI,42.9725,-83.6709
48808,Bath,MI,42.8212,-84.4610
56377,Sartell,MN,45.6230,-94.2096
43008,Buckeye Lake,OH,39.9340,-82.4793
49796,Walloon Lake,MI,45.2690,-84.9475
50160,Martensdale,IA,41.3732,-93.7409
50528,Cylinder,IA,43.1173,-94.5477
68368,Hallam,NE,40.5631,-96.7891
40293,Louisville,KY,38.1890,-85.6768
40546,Lexington,KY,38.0283,-84.4715
46581,Warsaw,IN,41.2394,-85.8643
64748,Golden City,MO,37.3714,-94.0906
64620,Altamont,MO,39.9005,-94.0888
65742,Rogersville,MO,37.1229,-93.0784
76842,Fredonia,TX,30.9275,-99.0898
78062,Peggy,TX,28.9200,-98.5529
80305,Boulder,CO,39.9797,-105.2526
83442,Rigby,ID,43.6751,-111.8741
83531,Fenn,ID,45.8893,-115.5574
83672,Weiser,ID,44.3108,-116.9333
60088,Great Lakes,IL,42.3124,-87.8528
62079,Piasa,IL,39.1158,-90.1334
62233,Chester,IL,37.9218,-89.8284
56637,Talmoon,MN,47.6119,-93.8327
57218,Brandt,SD,44.6524,-96.5922
58270,Park River,ND,48.3964,-97.7803
78628,Georgetown,TX,30.6743,-97.7234
62468,Toledo,IL,39.2738,-88.2565
62975,Pomona,IL,37.6188,-89.3617
73541,Fletcher,OK,34.8095,-98.1982
24313,Barren Springs,VA,36.9093,-80.8041
24884,Squire,WV,37.2496,-81.5521
25331,Charleston,WV,38.2968,-81.5547
13813,Nineveh,NY,42.1638,-75.5515
16434,Spartansburg,PA,41.8032,-79.6830
17094,Thompsontown,PA,40.5740,-77.2339
21002,Perryman,MD,39.4875,-76.1999
22121,Mount Vernon,VA,38.8309,-77.4323
22728,Midland,VA,38.5875,-77.7095
11210,Brooklyn,NY,40.6279,-73.9455
27343,Semora,NC,36.4958,-79.0933
28016,Bessemer City,NC,35.2926,-81.2872
17844,Mifflinburg,PA,40.9287,-77.0529
17923,Branchdale,PA,40.6708,-76.3240
18829,Le Raysville,PA,41.8379,-76.1742
28793,Hendersonville,NC,35.2927,-82.5036
56055,Lake Crystal,MN,44.1282,-94.2388
38235,McLemoresville,TN,35.9930,-88.5766
7878,Mount Tabor,NJ,40.8729,-74.4784
7881,Wallpack Center,NJ,41.1256,-74.9177
10012,New York,NY,40.7260,-73.9983
12008,Alplaus,NY,42.8530,-73.9029
12747,Hurleyville,NY,41.7525,-74.6700
15476,Ronco,PA,39.8697,-79.9220
16852,Madisonburg,PA,40.9274,-77.5300
2747,North Dartmouth,MA,41.6379,-70.9908
77003,Houston,TX,29.7493,-95.3474
77419,Blessing,TX,28.8721,-96.2316
66946,Hollenberg,KS,39.9681,-96.9891
67277,Wichita,KS,37.6936,-97.4804
68025,Fremont,NE,41.4348,-96.4887
68073,Yutan,NE,41.2495,-96.4026
72444,Maynard,AR,36.4222,-90.8824
43456,Put In Bay,OH,41.6716,-82.8128
65674,Humansville,MO,37.7933,-93.5988
70606,Lake Charles,LA,30.2642,-93.3265
27699,Raleigh,NC,35.7977,-78.6253
46760,Kimmell,IN,41.3596,-85.5620
47017,Cross Plains,IN,38.9305,-85.1941
47359,Montpelier,IN,40.5505,-85.2812
19185,Philadelphia,PA,40.0018,-75.1179
50140,Lamoni,IA,40.6309,-93.9486
53153,North Prairie,WI,42.9353,-88.4050
54136,Kimberly,WI,44.2684,-88.3366
83634,Kuna,ID,43.4636,-116.3931
84119,Salt Lake City,UT,40.6966,-111.9524
85214,Mesa,AZ,33.2765,-112.1872
85263,Rio Verde,AZ,33.7226,-111.6792
85306,Glendale,AZ,33.6245,-112.1767
85374,Surprise,AZ,33.6435,-112.3850
94803,El Sobrante,CA,37.9697,-122.2941
95935,Dobbins,CA,39.3819,-121.2176
78541,Edinburg,TX,26.3194,-98.1549
79053,Lazbuddie,TX,34.3917,-102.6024
79240,Lelia Lake,TX,34.8964,-100.7672
61883,Westville,IL,40.0401,-87.6369
62411,Altamont,IL,39.0629,-88.7391
15067,New Eagle,PA,40.2075,-79.9530
20658,Marbury,MD,38.5675,-77.1678
4743,Fort Kent,ME,47.2095,-68.5724
8885,Stanton,NJ,40.5764,-74.8311
19136,Philadelphia,PA,40.0411,-75.0264
19424,Blue Bell,PA,40.2119,-75.3559
2154,Waltham,MA,42.3889,-71.2398
2176,Melrose,MA,42.4590,-71.0623
38603,Ashland,MS,34.8394,-89.1582
40319,Farmers,KY,38.1403,-83.5337
40843,Holmes Mill,KY,36.8684,-82.9661
32097,Yulee,FL,30.6393,-81.5944
32592,Pensacola,FL,30.6143,-87.2758
33786,Belleair Beach,FL,27.9247,-82.8394
44101,Cleveland,OH,41.5234,-81.5996
45145,Marathon,OH,39.1457,-84.0070
36525,Creola,AL,30.8863,-88.0281
37166,Smithville,TN,35.9226,-85.8011
28383,Rowland,NC,34.5711,-79.2740
25507,Ceredo,WV,38.3961,-82.5588
41086,Sparta,KY,38.7098,-84.8881
42516,Bethelridge,KY,37.1915,-84.7983
43408,Clay Center,OH,41.5650,-83.3630
30139,Fairmount,GA,34.4346,-84.7013
95631,Foresthill,CA,39.0333,-120.8217
98034,Kirkland,WA,47.7183,-122.1970
98315,Silverdale,WA,47.7208,-122.7131
80321,Boulder,CO,40.0878,-105.3735
84085,Whiterocks,UT,40.5299,-109.9143
77217,Houston,TX,29.8340,-95.4342
77491,Katy,TX,29.8340,-95.4342
67035,Cunningham,KS,37.6550,-98.3964
67556,McCracken,KS,38.5893,-99.5223
56271,Murdock,MN,45.2423,-95.4242
57040,Lesterville,SD,43.0607,-97.5871
58495,Wishek,ND,46.2784,-99.5620
49452,Rothbury,MI,43.5206,-86.2734
70615,Lake Charles,LA,30.2399,-93.1498
72039,Damascus,AR,35.3391,-92.4036
72058,Greenbrier,AR,35.2370,-92.3757
54628,Ferryville,WI,43.3731,-91.0025
60927,Clifton,IL,40.9376,-87.9411
62231,Carlyle,IL,38.6234,-89.3637
29061,Hopkins,SC,33.9207,-80.8454
42216,Clifty,KY,37.0045,-87.1521
42253,Science Hill,KY,37.1793,-84.6339
43446,Middle Bass,OH,41.6835,-82.8047
35986,Rainsville,AL,34.5009,-85.8376
22508,Locust Grove,VA,38.3266,-77.7699
26845,Old Fields,WV,39.1843,-78.9458
28262,Charlotte,NC,35.3213,-80.7405
31318,Meldrim,GA,32.1420,-81.3789
25813,Beaver,WV,37.7547,-81.1130
33612,Tampa,FL,28.0486,-82.4517
75046,Garland,TX,32.7673,-96.7776
80238,Denver,CO,39.7388,-104.4083
82434,Otto,WY,44.3967,-108.2861
83012,Moose,WY,43.7015,-110.8322
84067,Roy,UT,41.1732,-112.0509
94230,Sacramento,CA,38.3774,-121.4444
96133,Topaz,CA,38.6511,-119.4987
16347,Sheffield,PA,41.6769,-79.0312
16440,Venango,PA,41.7746,-80.1145
5740,East Middlebury,VT,43.9715,-73.0914
6138,East Hartford,CT,41.7918,-72.7188
7015,Clifton,NJ,41.0114,-74.3048
8648,Trenton,NJ,40.2768,-74.7295
10094,New York,NY,40.7808,-73.9772
10259,New York,NY,40.7808,-73.9772
12458,Napanoch,NY,41.8029,-74.4003
21213,Baltimore,MD,39.3115,-76.5828
24475,Spottswood,VA,37.9651,-79.2357
24724,Freeman,WV,37.3277,-81.2999
24826,Cucumber,WV,37.3752,-81.6539
25832,Daniels,WV,37.7286,-81.1036
25833,Dothan,WV,38.0413,-81.0648
24093,Glen Lyn,VA,37.3779,-80.8566
14048,Dunkirk,NY,42.4795,-79.3281
4459,Mattawamkeag,ME,45.5185,-68.3362
1258,South Egremont,MA,42.1031,-73.4573
76204,Denton,TX,33.2074,-97.1163
77704,Beaumont,TX,30.1236,-94.1539
78074,Waring,TX,29.9510,-98.7909
81081,Trinchera,CO,37.0963,-104.1483
81633,Dinosaur,CO,40.3770,-108.3990
85031,Phoenix,AZ,33.4935,-112.1711
85307,Glendale,AZ,33.5293,-112.3061
78538,Edcouch,TX,26.3447,-97.9696
78933,Cat Spring,TX,29.7731,-96.3934
79846,Redford,TX,29.4443,-104.1163
98672,White Salmon,WA,45.7867,-121.4752
88561,El Paso,TX,31.6948,-106.3000
89433,Sun Valley,NV,39.5922,-119.7747
99165,Pullman,WA,46.8387,-117.6443
30453,Reidsville,GA,32.0574,-82.1214
36121,Montgomery,AL,32.2334,-86.2085
43324,Huntsville,OH,40.4609,-83.8377
3245,Holderness,NH,43.7378,-71.6044
3862,North Hampton,NH,42.9778,-70.8306
5479,Saint Albans,VT,44.8249,-72.8958
6233,Ballouville,CT,41.8316,-72.0201
985,Carolina,PR,18.3749,-65.9469
2159,Newton,MA,42.3161,-71.1912
22715,Brightwood,VA,38.4144,-78.1832
24323,Crockett,VA,36.8809,-81.1992
24832,English,WV,37.3752,-81.6539
31740,Cuthbert,GA,31.7818,-84.7644
32121,Daytona Beach,FL,29.0227,-81.1722
15361,Southview,PA,40.3283,-80.2596
15660,Lowber,PA,40.2454,-79.7720
92815,Anaheim,CA,33.6403,-117.7694
93644,Oakhurst,CA,37.4057,-119.5675
95201,Stockton,CA,37.6722,-121.2988
21029,Clarksville,MD,39.1988,-76.9367
36688,Mobile,AL,30.6966,-88.1737
60644,Chicago,IL,41.8813,-87.7567
61311,Ancona,IL,41.0429,-88.8627
78250,San Antonio,TX,29.5102,-98.6678
80866,Woodland Park,CO,39.0857,-105.2366
70559,Morse,LA,30.1428,-92.5117
36191,Montgomery,AL,32.2334,-86.2085
40376,Slade,KY,37.7842,-83.6922
40742,London,KY,37.1376,-84.1156
3581,Gorham,NH,44.3866,-71.1627
3905,Kittery Point,ME,43.0851,-70.6961
5765,Proctor,VT,43.6577,-73.0328
6819,Danbury,CT,41.3920,-73.4758
7420,Haskell,NJ,41.0267,-74.2974
2633,Chatham,MA,41.6865,-69.9775
89824,Halleck,NV,41.0295,-115.4113
99550,Port Lions,AK,57.8671,-152.8857
99663,Seldovia,AK,59.4227,-151.7151
85536,Fort Thomas,AZ,33.0287,-109.9872
85931,Forest Lakes,AZ,34.3939,-110.8359
76450,Graham,TX,33.0819,-98.6009
94925,Corte Madera,CA,37.9242,-122.5160
96073,Palo Cedro,CA,40.5626,-122.2255
96095,Whiskeytown,CA,40.6071,-122.5463
78383,Sandia,TX,28.0666,-97.9289
78860,El Indio,TX,28.5138,-100.3165
13740,Bovina Center,NY,42.2742,-74.7546
14814,Big Flats,NY,42.1508,-76.9481
15316,Brave,PA,39.7434,-80.2638
5142,Cavendish,VT,43.4042,-72.5905
6336,Gilman,CT,41.5772,-72.2004
6853,Norwalk,CT,41.0662,-73.4382
1032,Goshen,MA,42.4579,-72.8155
44093,Williamsfield,OH,41.5256,-80.5808
27705,Durham,NC,36.0160,-78.9591
28055,Gastonia,NC,35.2840,-81.1897
32686,Reddick,FL,29.3640,-82.2348
33338,Fort Lauderdale,FL,26.1457,-80.4483
48003,Almont,MI,42.9312,-83.0459
16661,Madera,PA,40.8418,-78.4617
18415,Damascus,PA,41.7436,-75.1238
5418,Fletcher,VT,44.7380,-72.8781
10308,Staten Island,NY,40.5514,-74.1510
4254,Livermore Falls,ME,44.4710,-70.1749
13694,Waddington,NY,44.8668,-75.1720
14030,Chaffee,NY,42.5624,-78.4909
14129,Perrysburg,NY,42.4692,-79.0107
14726,Conewango Valley,NY,42.2511,-79.0379
